# 
# Header Description:
# 
# Version: v2.0.0.1 Platform: 7.0 Manufacturer: BullittGroupLimited Model: S41
# 
# Raw,ElapsedRealtimeMillis,TimeNanos,LeapSecond,TimeUncertaintyNanos,FullBiasNanos,BiasNanos,BiasUncertaintyNanos,DriftNanosPerSecond,DriftUncertaintyNanosPerSecond,HardwareClockDiscontinuityCount,Svid,TimeOffsetNanos,State,ReceivedSvTimeNanos,ReceivedSvTimeUncertaintyNanos,Cn0DbHz,PseudorangeRateMetersPerSecond,PseudorangeRateUncertaintyMetersPerSecond,AccumulatedDeltaRangeState,AccumulatedDeltaRangeMeters,AccumulatedDeltaRangeUncertaintyMeters,CarrierFrequencyHz,CarrierCycles,CarrierPhase,CarrierPhaseUncertainty,MultipathIndicator,SnrInDb,ConstellationType,AgcDb,CarrierFrequencyHz
# 
# Fix,Provider,Latitude,Longitude,Altitude,Speed,Accuracy,(UTC)TimeInMs
# 
# Nav,Svid,Type,Status,MessageId,Sub-messageId,Data(Bytes)
# 
NMEA,$GNGGA,192253.507,2207.2011,S,05124.5123,W,1,5,1.68,376.8,M,-2.7,M,,*5B
,1523992973000
NMEA,$GPGSA,A,3,22,18,31,11,23,,,,,,,,1.94,1.68,0.97*05
,1523992973000
NMEA,$GLGSA,A,3,,,,,,,,,,,,,1.94,1.68,0.97*13
,1523992973000
NMEA,$GPGSV,4,1,13,01,77,292,,18,62,002,16.8,22,58,152,24.7,11,51,317,15.8*6F
,1523992973000
NMEA,$GPGSV,4,2,13,23,49,251,19.8,03,47,193,,31,28,134,20.5,09,19,282,*7C
,1523992973000
NMEA,$GPGSV,4,3,13,26,12,077,,14,11,134,,16,09,050,13.8,08,08,348,*68
,1523992973000
NMEA,$GPGSV,4,4,13,17,06,241,*4C
,1523992973000
NMEA,$GLGSV,3,1,9,79,45,074,,84,41,259,,69,34,199,,83,31,333,*56
,1523992973000
NMEA,$GLGSV,3,2,9,78,28,126,,68,27,139,,80,17,007,,85,09,213,*50
,1523992973000
NMEA,$GLGSV,3,3,9,70,05,249,*61
,1523992973000
Fix,gps,-22.120018,-51.408538,376.800000,0.000000,7.800000,1523992973000
NMEA,$GNRMC,192253.507,A,2207.2011,S,05124.5123,W,0.000,0.00,170418,,,A*4A
,1523992973000
NMEA,$GNVTG,0.00,T,,M,0.000,N,0.000,K,A*23
,1523992973000
NMEA,$GNACCURACY,7.8*19
,1523992973000
Raw,185510139,1208028191507000064,18,206.96483747089695,-414818,0.30075759324245155,206.96483747089695,85.74960929073961,4.042142360723316,0,18,-414817.69924240676,10,20000,207,22.0,1768.348388671875,0.1499999,0,0.0,0.0,1.57542003E9,,,,0,5.0102999566398125,1,,1.57542003E9
Raw,185510141,1208028191507000064,18,206.96483747089695,-414818,0.30075759324245155,206.96483747089695,85.74960929073961,4.042142360723316,0,22,-414817.69924240676,8,242591507000000,207,28.0,-257.9918518066406,0.1499999,0,0.0,0.0,1.57542003E9,,,,0,11.010299956639813,1,,1.57542003E9
Raw,185510141,1208028191507000064,18,206.96483747089695,-414818,0.30075759324245155,206.96483747089695,85.74960929073961,4.042142360723316,0,23,-414817.69924240676,10,20000,207,21.0,-497.5675048828125,0.1499999,0,0.0,0.0,1.57542003E9,,,,0,4.0102999566398125,1,,1.57542003E9
Raw,185510144,1208028191507000064,18,206.96483747089695,-414818,0.30075759324245155,206.96483747089695,85.74960929073961,4.042142360723316,0,31,-414817.69924240676,10,20000,207,21.0,2549.03271484375,0.1499999,0,0.0,0.0,1.57542003E9,,,,0,4.0102999566398125,1,,1.57542003E9
NMEA,$GNGGA,192255.000,2207.2016,S,05124.5111,W,1,5,1.68,384.6,M,-2.7,M,,*5A
,1523992975000
NMEA,$GPGSA,A,3,22,18,31,11,23,,,,,,,,1.94,1.68,0.97*05
,1523992975000
NMEA,$GLGSA,A,3,,,,,,,,,,,,,1.94,1.68,0.97*13
,1523992975000
NMEA,$GPGSV,4,1,13,01,77,292,,18,62,002,18.1,22,58,152,25.6,11,51,317,20.5*63
,1523992975000
NMEA,$GPGSV,4,2,13,23,49,251,19.1,03,47,193,,31,28,134,19.7,09,19,282,*7D
,1523992975000
NMEA,$GPGSV,4,3,13,26,12,077,,14,11,134,,16,09,050,11.7,08,08,348,*65
,1523992975000
NMEA,$GPGSV,4,4,13,17,06,241,*4C
,1523992975000
NMEA,$GLGSV,3,1,9,79,45,074,,84,41,259,,69,34,199,,83,31,333,*56
,1523992975000
NMEA,$GLGSV,3,2,9,78,28,126,,68,27,139,,80,17,007,,85,09,213,*50
,1523992975000
NMEA,$GLGSV,3,3,9,70,05,249,*61
,1523992975000
NMEA,$GNRMC,192255.000,A,2207.2016,S,05124.5111,W,0.000,0.00,170418,,,A*48
,1523992975000
NMEA,$GNVTG,0.00,T,,M,0.000,N,0.000,K,A*23
,1523992975000
Fix,gps,-22.120027,-51.408518,384.600000,0.000000,7.200000,1523992975000
Raw,185511646,1208028193000000000,18,191.81431870438973,-414660,-0.40546855330467224,191.81431870438973,86.74391825923345,3.168555664585093,0,18,-414660.4054685533,10,20000,192,21.0,1771.11767578125,0.1499999,0,0.0,0.0,1.57542003E9,,,,0,4.0102999566398125,1,,1.57542003E9
Raw,185511648,1208028193000000000,18,191.81431870438973,-414660,-0.40546855330467224,191.81431870438973,86.74391825923345,3.168555664585093,0,22,-414660.4054685533,8,242593000000000,192,30.0,-258.29193115234375,0.1499999,0,0.0,0.0,1.57542003E9,,,,0,13.010299956639813,1,,1.57542003E9
Raw,185511649,1208028193000000000,18,191.81431870438973,-414660,-0.40546855330467224,191.81431870438973,86.74391825923345,3.168555664585093,0,23,-414660.4054685533,10,20000,192,21.0,-494.2945556640625,0.1499999,0,0.0,0.0,1.57542003E9,,,,0,4.0102999566398125,1,,1.57542003E9
Raw,185511650,1208028193000000000,18,191.81431870438973,-414660,-0.40546855330467224,191.81431870438973,86.74391825923345,3.168555664585093,0,31,-414660.4054685533,10,20000,192,23.0,2547.12060546875,0.1499999,0,0.0,0.0,1.57542003E9,,,,0,6.0102999566398125,1,,1.57542003E9
NMEA,$GNACCURACY,7.2*13
,1523992975000
NMEA,$GNGGA,192256.000,2207.2024,S,05124.5105,W,1,5,1.67,394.5,M,-2.7,M,,*50
,1523992976000
NMEA,$GPGSA,A,3,22,18,31,11,23,,,,,,,,1.93,1.67,0.97*0D
,1523992976000
NMEA,$GLGSA,A,3,,,,,,,,,,,,,1.93,1.67,0.97*1B
,1523992976000
NMEA,$GPGSV,4,1,13,01,77,292,,18,62,002,18.7,22,58,152,25.1,11,51,317,20.4*63
,1523992976000
Fix,gps,-22.120040,-51.408508,394.500000,0.000000,6.700000,1523992976000
NMEA,$GPGSV,4,2,13,23,49,251,18.7,03,47,193,,31,28,134,20.5,09,19,282,*72
,1523992976000
NMEA,$GPGSV,4,3,13,26,12,077,,14,11,134,,16,09,050,11.7,08,08,348,*65
,1523992976000
NMEA,$GPGSV,4,4,13,17,06,241,*4C
,1523992976000
NMEA,$GLGSV,3,1,9,79,45,074,,84,41,259,,69,34,199,,83,31,333,*56
,1523992976000
NMEA,$GLGSV,3,2,9,78,28,126,,68,27,139,,80,17,007,,85,09,213,*50
,1523992976000
NMEA,$GLGSV,3,3,9,70,05,249,*61
,1523992976000
NMEA,$GNRMC,192256.000,A,2207.2024,S,05124.5105,W,0.000,0.00,170418,,,A*4F
,1523992976000
NMEA,$GNVTG,0.00,T,,M,0.000,N,0.000,K,A*23
,1523992976000
NMEA,$GNACCURACY,6.7*17
,1523992976000
Raw,185512652,1208028194000000000,18,183.295915952677,-414542,-0.040853122249245644,183.295915952677,86.85194997475121,2.607169171769407,0,18,-414542.04085312225,10,20000,183,24.0,1768.638427734375,0.1499999,0,0.0,0.0,1.57542003E9,,,,0,7.0102999566398125,1,,1.57542003E9
Raw,185512655,1208028194000000000,18,183.295915952677,-414542,-0.040853122249245644,183.295915952677,86.85194997475121,2.607169171769407,0,22,-414542.04085312225,8,242594000000000,183,27.0,-259.90167236328125,0.1499999,0,0.0,0.0,1.57542003E9,,,,0,10.010299956639813,1,,1.57542003E9
Raw,185512656,1208028194000000000,18,183.295915952677,-414542,-0.040853122249245644,183.295915952677,86.85194997475121,2.607169171769407,0,23,-414542.04085312225,10,20000,183,19.0,-494.3975830078125,0.1499999,0,0.0,0.0,1.57542003E9,,,,0,2.0102999566398125,1,,1.57542003E9
Raw,185512657,1208028194000000000,18,183.295915952677,-414542,-0.040853122249245644,183.295915952677,86.85194997475121,2.607169171769407,0,31,-414542.04085312225,10,20000,183,25.0,2546.85888671875,0.1499999,0,0.0,0.0,1.57542003E9,,,,0,8.010299956639813,1,,1.57542003E9
NMEA,$GNGGA,192257.000,2207.2042,S,05124.5111,W,1,5,1.67,398.7,M,-2.7,M,,*5A
,1523992977000
NMEA,$GPGSA,A,3,22,18,31,11,23,,,,,,,,1.93,1.67,0.97*0D
,1523992977000
NMEA,$GLGSA,A,3,,,,,,,,,,,,,1.93,1.67,0.97*1B
,1523992977000
NMEA,$GPGSV,4,1,13,01,77,292,,18,62,002,22.5,22,58,152,24.6,11,51,317,20.7*6D
,1523992977000
NMEA,$GPGSV,4,2,13,23,49,251,18.4,03,47,193,,31,28,134,21.3,09,19,282,*76
,1523992977000
NMEA,$GPGSV,4,3,13,26,12,077,,14,11,134,,16,09,050,11.7,08,08,348,*65
,1523992977000
NMEA,$GPGSV,4,4,13,17,06,241,*4C
,1523992977000
NMEA,$GLGSV,3,1,9,79,45,074,,84,41,259,,69,34,199,,83,31,333,*56
,1523992977000
NMEA,$GLGSV,3,2,9,78,28,126,,68,27,139,,80,17,007,,85,09,213,*50
,1523992977000
Fix,gps,-22.120070,-51.408518,398.700000,0.000000,6.300000,1523992977000
NMEA,$GLGSV,3,3,9,70,05,249,*61
,1523992977000
NMEA,$GNRMC,192257.000,A,2207.2042,S,05124.5111,W,0.000,0.00,170418,,,A*4B
,1523992977000
NMEA,$GNVTG,0.00,T,,M,0.000,N,0.000,K,A*23
,1523992977000
NMEA,$GNACCURACY,6.3*13
,1523992977000
Raw,185513663,1208028195000000000,18,181.0243834521243,-414438,-0.2817110567120835,181.0243834521243,87.0310123924224,2.429783234844404,0,18,-414438.2817110567,10,20000,181,26.0,1768.5654296875,0.1499999,0,0.0,0.0,1.57542003E9,,,,0,9.010299956639813,1,,1.57542003E9
Raw,185513665,1208028195000000000,18,181.0243834521243,-414438,-0.2817110567120835,181.0243834521243,87.0310123924224,2.429783234844404,0,22,-414438.2817110567,8,242595000000000,181,27.0,-259.20892333984375,0.1499999,0,0.0,0.0,1.57542003E9,,,,0,10.010299956639813,1,,1.57542003E9
Raw,185513666,1208028195000000000,18,181.0243834521243,-414438,-0.2817110567120835,181.0243834521243,87.0310123924224,2.429783234844404,0,23,-414438.2817110567,10,20000,181,20.0,-492.4212646484375,0.1499999,0,0.0,0.0,1.57542003E9,,,,0,3.0102999566398125,1,,1.57542003E9
Raw,185513667,1208028195000000000,18,181.0243834521243,-414438,-0.2817110567120835,181.0243834521243,87.0310123924224,2.429783234844404,0,31,-414438.2817110567,10,20000,181,26.0,2547.2998046875,0.1499999,0,0.0,0.0,1.57542003E9,,,,0,9.010299956639813,1,,1.57542003E9
NMEA,$GNGGA,192258.000,2207.2053,S,05124.5116,W,1,6,1.67,405.5,M,-2.7,M,,*50
,1523992978000
NMEA,$GPGSA,A,3,22,18,31,11,23,01,,,,,,,1.92,1.67,0.96*0C
,1523992978000
NMEA,$GLGSA,A,3,,,,,,,,,,,,,1.92,1.67,0.96*1B
,1523992978000
NMEA,$GPGSV,4,1,13,01,77,292,23.2,18,62,002,22.7,22,58,152,24.4,11,51,317,20.5*72
,1523992978000
NMEA,$GPGSV,4,2,13,23,49,251,17.6,03,47,193,,31,28,134,22.2,09,19,282,*79
,1523992978000
NMEA,$GPGSV,4,3,13,26,12,077,,14,11,134,,16,09,050,13.9,08,08,348,*69
,1523992978000
NMEA,$GPGSV,4,4,13,17,06,241,*4C
,1523992978000
NMEA,$GLGSV,3,1,9,79,45,074,,84,41,259,,69,34,199,,83,31,333,*56
,1523992978000
Fix,gps,-22.120088,-51.408527,405.500000,0.000000,6.100000,1523992978000
NMEA,$GLGSV,3,2,9,78,28,126,,68,27,139,,80,17,007,,85,09,213,*50
,1523992978000
NMEA,$GLGSV,3,3,9,70,05,249,*61
,1523992978000
NMEA,$GNRMC,192258.000,A,2207.2053,S,05124.5116,W,0.000,0.00,170418,,,A*43
,1523992978000
NMEA,$GNVTG,0.00,T,,M,0.000,N,0.000,K,A*23
,1523992978000
NMEA,$GNACCURACY,6.1*11
,1523992978000
Raw,185514645,1208028196000000000,18,176.73308462486196,-414330,-0.21925541065866128,176.73308462486196,86.95867297324534,2.321098846736222,0,18,-414330.21925541066,10,20000,177,26.0,1769.10986328125,0.1499999,0,0.0,0.0,1.57542003E9,,,,0,9.010299956639813,1,,1.57542003E9
Raw,185514646,1208028196000000000,18,176.73308462486196,-414330,-0.21925541065866128,176.73308462486196,86.95867297324534,2.321098846736222,0,22,-414330.21925541066,8,242596000000000,177,27.0,-260.51910400390625,0.1499999,0,0.0,0.0,1.57542003E9,,,,0,10.010299956639813,1,,1.57542003E9
Raw,185514648,1208028196000000000,18,176.73308462486196,-414330,-0.21925541065866128,176.73308462486196,86.95867297324534,2.321098846736222,0,23,-414330.21925541066,10,20000,177,20.0,-492.7425537109375,0.1499999,0,0.0,0.0,1.57542003E9,,,,0,3.0102999566398125,1,,1.57542003E9
Raw,185514649,1208028196000000000,18,176.73308462486196,-414330,-0.21925541065866128,176.73308462486196,86.95867297324534,2.321098846736222,0,31,-414330.21925541066,10,20000,177,27.0,2547.819580078125,0.1499999,0,0.0,0.0,1.57542003E9,,,,0,10.010299956639813,1,,1.57542003E9
NMEA,$GNGGA,192259.000,2207.2070,S,05124.5136,W,1,6,1.67,408.7,M,-2.7,M,,*5D
,1523992979000
NMEA,$GPGSA,A,3,22,18,31,11,23,01,,,,,,,1.92,1.67,0.96*0C
,1523992979000
NMEA,$GLGSA,A,3,,,,,,,,,,,,,1.92,1.67,0.96*1B
,1523992979000
NMEA,$GPGSV,4,1,13,01,77,292,23.9,18,62,002,23.2,22,58,152,24.0,11,51,317,20.6*7A
,1523992979000
NMEA,$GPGSV,4,2,13,23,49,251,17.8,03,47,193,,31,28,134,22.7,09,19,282,*72
,1523992979000
NMEA,$GPGSV,4,3,13,26,12,077,,14,11,134,,16,09,050,13.9,08,08,348,*69
,1523992979000
NMEA,$GPGSV,4,4,13,17,06,241,*4C
,1523992979000
NMEA,$GLGSV,3,1,9,79,45,074,,84,41,259,,69,34,199,,83,31,333,*56
,1523992979000
NMEA,$GLGSV,3,2,9,78,28,126,,68,27,139,,80,17,007,,85,09,213,*50
,1523992979000
Fix,gps,-22.120117,-51.408560,408.700000,0.000000,5.800000,1523992979000
NMEA,$GLGSV,3,3,9,70,05,249,*61
,1523992979000
NMEA,$GNRMC,192259.000,A,2207.2070,S,05124.5136,W,0.000,0.00,170418,,,A*41
,1523992979000
NMEA,$GNVTG,0.00,T,,M,0.000,N,0.000,K,A*23
,1523992979000
NMEA,$GNACCURACY,5.8*1B
,1523992979000
Raw,185515672,1208028197000000000,18,175.63472192598618,-414233,0.4822428585612215,175.63472192598618,86.6034750188628,2.16096568758133,0,18,-414232.51775714144,10,20000,176,27.0,1769.345458984375,0.1499999,0,0.0,0.0,1.57542003E9,,,,0,10.010299956639813,1,,1.57542003E9
Raw,185515673,1208028197000000000,18,175.63472192598618,-414233,0.4822428585612215,175.63472192598618,86.6034750188628,2.16096568758133,0,22,-414232.51775714144,8,242597000000000,176,26.0,-260.997314453125,0.1499999,0,0.0,0.0,1.57542003E9,,,,0,9.010299956639813,1,,1.57542003E9
Raw,185515676,1208028197000000000,18,175.63472192598618,-414233,0.4822428585612215,175.63472192598618,86.6034750188628,2.16096568758133,0,23,-414232.51775714144,10,20000,176,22.0,-494.4227294921875,0.1499999,0,0.0,0.0,1.57542003E9,,,,0,5.0102999566398125,1,,1.57542003E9
Raw,185515677,1208028197000000000,18,175.63472192598618,-414233,0.4822428585612215,175.63472192598618,86.6034750188628,2.16096568758133,0,31,-414232.51775714144,10,20000,176,27.0,2547.56005859375,0.1499999,0,0.0,0.0,1.57542003E9,,,,0,10.010299956639813,1,,1.57542003E9
NMEA,$GNGGA,192300.000,2207.2079,S,05124.5147,W,1,6,1.67,411.6,M,-2.7,M,,*56
,1523992980000
NMEA,$GPGSA,A,3,22,18,31,11,23,01,,,,,,,1.92,1.67,0.96*0C
,1523992980000
NMEA,$GLGSA,A,3,,,,,,,,,,,,,1.92,1.67,0.96*1B
,1523992980000
NMEA,$GPGSV,4,1,13,01,77,292,23.5,18,62,002,23.6,22,58,152,23.7,11,51,317,20.4*70
,1523992980000
NMEA,$GPGSV,4,2,13,23,49,251,17.5,03,47,193,,31,28,134,22.9,09,19,282,*71
,1523992980000
NMEA,$GPGSV,4,3,13,26,12,077,,14,11,134,,16,09,050,13.9,08,08,348,*69
,1523992980000
NMEA,$GPGSV,4,4,13,17,06,241,*4C
,1523992980000
NMEA,$GLGSV,3,1,9,79,45,074,,84,41,259,,69,34,199,,83,31,333,*56
,1523992980000
NMEA,$GLGSV,3,2,9,78,28,126,,68,27,139,,80,17,007,,85,09,213,*50
,1523992980000
NMEA,$GLGSV,3,3,9,70,05,249,*61
,1523992980000
NMEA,$GNRMC,192300.000,A,2207.2079,S,05124.5147,W,0.000,0.00,170418,,,A*43
,1523992980000
NMEA,$GNVTG,0.00,T,,M,0.000,N,0.000,K,A*23
,1523992980000
Fix,gps,-22.120132,-51.408578,411.600000,0.000000,5.600000,1523992980000
Raw,185516642,1208028198000000000,18,171.94056930170973,-414137,-0.11014870024519041,171.94056930170973,86.5067156822087,2.1234629251534387,0,18,-414137.11014870025,10,20000,172,27.0,1769.361328125,0.1499999,0,0.0,0.0,1.57542003E9,,,,0,10.010299956639813,1,,1.57542003E9
Raw,185516643,1208028198000000000,18,171.94056930170973,-414137,-0.11014870024519041,171.94056930170973,86.5067156822087,2.1234629251534387,0,22,-414137.11014870025,8,242598000000000,172,26.0,-260.1258544921875,0.1499999,0,0.0,0.0,1.57542003E9,,,,0,9.010299956639813,1,,1.57542003E9
Raw,185516645,1208028198000000000,18,171.94056930170973,-414137,-0.11014870024519041,171.94056930170973,86.5067156822087,2.1234629251534387,0,23,-414137.11014870025,10,20000,172,21.0,-495.2508544921875,0.1499999,0,0.0,0.0,1.57542003E9,,,,0,4.0102999566398125,1,,1.57542003E9
Raw,185516646,1208028198000000000,18,171.94056930170973,-414137,-0.11014870024519041,171.94056930170973,86.5067156822087,2.1234629251534387,0,31,-414137.11014870025,10,20000,172,27.0,2547.797119140625,0.1499999,0,0.0,0.0,1.57542003E9,,,,0,10.010299956639813,1,,1.57542003E9
NMEA,$GNACCURACY,5.6*15
,1523992980000
NMEA,$GNGGA,192301.000,2207.2086,S,05124.5152,W,1,6,1.67,413.4,M,-2.7,M,,*53
,1523992981000
Fix,gps,-22.120143,-51.408587,413.400000,0.000000,5.400000,1523992981000
NMEA,$GPGSA,A,3,22,18,31,11,23,01,,,,,,,1.92,1.67,0.96*0C
,1523992981000
NMEA,$GLGSA,A,3,,,,,,,,,,,,,1.92,1.67,0.96*1B
,1523992981000
NMEA,$GPGSV,4,1,13,01,77,292,23.0,18,62,002,23.6,22,58,152,24.3,11,51,317,19.9*71
,1523992981000
NMEA,$GPGSV,4,2,13,23,49,251,17.7,03,47,193,,31,28,134,22.4,09,19,282,*7E
,1523992981000
NMEA,$GPGSV,4,3,13,26,12,077,,14,10,134,,16,09,050,14.7,08,08,348,*61
,1523992981000
NMEA,$GPGSV,4,4,13,17,06,241,*4C
,1523992981000
NMEA,$GLGSV,3,1,9,79,45,074,,84,41,259,,69,34,199,,83,31,333,*56
,1523992981000
NMEA,$GLGSV,3,2,9,78,28,126,,68,27,139,,80,17,007,,85,09,213,*50
,1523992981000
NMEA,$GLGSV,3,3,9,70,05,249,*61
,1523992981000
NMEA,$GNRMC,192301.000,A,2207.2086,S,05124.5152,W,0.000,0.00,170418,,,A*46
,1523992981000
NMEA,$GNVTG,0.00,T,,M,0.000,N,0.000,K,A*23
,1523992981000
Raw,185517624,1208028199000000000,18,167.5511394356989,-414045,0.11512061260873452,167.5511394356989,86.45842528969061,2.128445147866415,0,18,-414044.8848793874,10,20000,168,27.0,1770.775634765625,0.1499999,0,0.0,0.0,1.57542003E9,,,,0,10.010299956639813,1,,1.57542003E9
Raw,185517625,1208028199000000000,18,167.5511394356989,-414045,0.11512061260873452,167.5511394356989,86.45842528969061,2.128445147866415,0,22,-414044.8848793874,8,242599000000000,168,29.0,-259.24139404296875,0.1499999,0,0.0,0.0,1.57542003E9,,,,0,12.010299956639813,1,,1.57542003E9
Raw,185517627,1208028199000000000,18,167.5511394356989,-414045,0.11512061260873452,167.5511394356989,86.45842528969061,2.128445147866415,0,23,-414044.8848793874,10,20000,168,21.0,-495.6546630859375,0.1499999,0,0.0,0.0,1.57542003E9,,,,0,4.0102999566398125,1,,1.57542003E9
Raw,185517629,1208028199000000000,18,167.5511394356989,-414045,0.11512061260873452,167.5511394356989,86.45842528969061,2.128445147866415,0,31,-414044.8848793874,10,20000,168,25.0,2546.954345703125,0.1499999,0,0.0,0.0,1.57542003E9,,,,0,8.010299956639813,1,,1.57542003E9
NMEA,$GNACCURACY,5.4*17
,1523992981000
NMEA,$GNGGA,192301.500,2207.2087,S,05124.5151,W,1,7,1.45,414.9,M,-2.7,M,,*5F
,1523992981000
NMEA,$GPGSA,A,3,22,03,18,31,11,23,01,,,,,,1.74,1.45,0.96*07
,1523992981000
NMEA,$GLGSA,A,3,,,,,,,,,,,,,1.74,1.45,0.96*13
,1523992981000
NMEA,$GPGSV,4,1,13,01,77,292,23.0,18,62,002,23.4,22,58,152,23.9,11,51,317,19.5*72
,1523992981000
NMEA,$GPGSV,4,2,13,23,49,251,17.8,03,47,193,15.3,31,28,134,22.0,09,19,282,*6C
,1523992981000
NMEA,$GPGSV,4,3,13,26,12,077,,14,10,134,,16,09,050,15.2,08,08,348,*65
,1523992981000
NMEA,$GPGSV,4,4,13,17,06,241,*4C
,1523992981000
NMEA,$GLGSV,3,1,9,79,45,074,,84,41,259,,69,34,199,,83,31,333,*56
,1523992981000
NMEA,$GLGSV,3,2,9,78,28,126,,68,27,139,,80,17,007,,85,09,213,*50
,1523992981000
Raw,185518074,1208028199500000000,18,163.26015871994701,-413997,0.34564595471601933,163.26015871994701,86.4084624988416,1.9058014863474468,0,16,-413996.6543540453,10,20000,163,20.0,-1565.65625,0.1499999,0,0.0,0.0,1.57542003E9,,,,0,3.0102999566398125,1,,1.57542003E9
Raw,185518075,1208028199500000000,18,163.26015871994701,-413997,0.34564595471601933,163.26015871994701,86.4084624988416,1.9058014863474468,0,18,-413996.6543540453,10,20000,163,26.0,1771.32421875,0.1499999,0,0.0,0.0,1.57542003E9,,,,0,9.010299956639813,1,,1.57542003E9
Raw,185518076,1208028199500000000,18,163.26015871994701,-413997,0.34564595471601933,163.26015871994701,86.4084624988416,1.9058014863474468,0,22,-413996.6543540453,8,242599500000000,163,26.0,-259.4449462890625,0.1499999,0,0.0,0.0,1.57542003E9,,,,0,9.010299956639813,1,,1.57542003E9
Raw,185518077,1208028199500000000,18,163.26015871994701,-413997,0.34564595471601933,163.26015871994701,86.4084624988416,1.9058014863474468,0,23,-413996.6543540453,10,20000,163,21.0,-496.3843994140625,0.1499999,0,0.0,0.0,1.57542003E9,,,,0,4.0102999566398125,1,,1.57542003E9
Raw,185518077,1208028199500000000,18,163.26015871994701,-413997,0.34564595471601933,163.26015871994701,86.4084624988416,1.9058014863474468,0,31,-413996.6543540453,10,20000,163,24.0,2546.907470703125,0.1499999,0,0.0,0.0,1.57542003E9,,,,0,7.0102999566398125,1,,1.57542003E9
NMEA,$GLGSV,3,3,9,70,05,249,*61
,1523992981000
NMEA,$GNRMC,192301.500,A,2207.2087,S,05124.5151,W,0.000,0.00,170418,,,A*41
,1523992981000
NMEA,$GNVTG,0.00,T,,M,0.000,N,0.000,K,A*23
,1523992981000
NMEA,$GNACCURACY,5.2*11
,1523992981000
NMEA,$GNGGA,192302.000,2207.2089,S,05124.5153,W,1,7,1.45,416.0,M,-2.7,M,,*5E
,1523992982000
NMEA,$GPGSA,A,3,22,03,18,31,11,23,01,,,,,,1.74,1.45,0.96*07
,1523992982000
NMEA,$GLGSA,A,3,,,,,,,,,,,,,1.74,1.45,0.96*13
,1523992982000
NMEA,$GPGSV,4,1,13,01,77,292,20.0,18,62,002,23.2,22,58,152,24.2,11,51,317,19.1*7F
,1523992982000
NMEA,$GPGSV,4,2,13,23,49,251,17.8,03,47,193,15.3,31,28,134,22.2,09,19,282,*6E
,1523992982000
NMEA,$GPGSV,4,3,13,26,12,077,,14,10,134,,16,09,050,15.5,08,08,348,*62
,1523992982000
NMEA,$GPGSV,4,4,13,17,06,241,*4C
,1523992982000
NMEA,$GLGSV,3,1,9,79,45,074,,84,41,259,,69,34,199,,83,31,333,*56
,1523992982000
NMEA,$GLGSV,3,2,9,78,28,126,,68,27,139,,80,17,007,,85,09,213,*50
,1523992982000
NMEA,$GLGSV,3,3,9,70,05,249,*61
,1523992982000
Fix,gps,-22.120148,-51.408588,416.000000,0.000000,5.100000,1523992982000
NMEA,$GNRMC,192302.000,A,2207.2089,S,05124.5153,W,0.000,0.00,170418,,,A*4B
,1523992982000
NMEA,$GNVTG,0.00,T,,M,0.000,N,0.000,K,A*23
,1523992982000
NMEA,$GNACCURACY,5.1*12
,1523992982000
Raw,185518642,1208028200000000000,18,161.72710300424995,-413951,0.3729054597206414,161.72710300424995,85.86810068798923,1.6985854378072927,0,16,-413950.6270945403,10,20000,162,19.0,-1567.5223388671875,0.1499999,0,0.0,0.0,1.57542003E9,,,,0,2.0102999566398125,1,,1.57542003E9
Raw,185518643,1208028200000000000,18,161.72710300424995,-413951,0.3729054597206414,161.72710300424995,85.86810068798923,1.6985854378072927,0,18,-413950.6270945403,10,20000,162,26.0,1768.6619873046875,0.1499999,0,0.0,0.0,1.57542003E9,,,,0,9.010299956639813,1,,1.57542003E9
Raw,185518645,1208028200000000000,18,161.72710300424995,-413951,0.3729054597206414,161.72710300424995,85.86810068798923,1.6985854378072927,0,22,-413950.6270945403,8,242600000000000,162,28.0,-261.16693115234375,0.1499999,0,0.0,0.0,1.57542003E9,,,,0,11.010299956639813,1,,1.57542003E9
Raw,185518646,1208028200000000000,18,161.72710300424995,-413951,0.3729054597206414,161.72710300424995,85.86810068798923,1.6985854378072927,0,23,-413950.6270945403,10,20000,162,21.0,-497.4910888671875,0.1499999,0,0.0,0.0,1.57542003E9,,,,0,4.0102999566398125,1,,1.57542003E9
Raw,185518652,1208028200000000000,18,161.72710300424995,-413951,0.3729054597206414,161.72710300424995,85.86810068798923,1.6985854378072927,0,31,-413950.6270945403,10,20000,162,26.0,2546.63671875,0.1499999,0,0.0,0.0,1.57542003E9,,,,0,9.010299956639813,1,,1.57542003E9
NMEA,$GNGGA,192302.500,2207.2088,S,05124.5151,W,1,7,1.45,417.5,M,-2.7,M,,*5C
,1523992982000
NMEA,$GPGSA,A,3,22,03,18,31,11,23,01,,,,,,1.74,1.45,0.96*07
,1523992982000
NMEA,$GLGSA,A,3,,,,,,,,,,,,,1.74,1.45,0.96*13
,1523992982000
NMEA,$GPGSV,4,1,13,01,77,292,20.0,18,62,002,23.5,22,58,152,24.6,11,51,317,18.8*74
,1523992982000
NMEA,$GPGSV,4,2,13,23,49,251,17.9,03,47,193,15.3,31,28,134,22.4,09,19,282,*69
,1523992982000
NMEA,$GPGSV,4,3,13,26,12,077,,14,10,134,,16,09,050,15.7,08,08,348,*60
,1523992982000
NMEA,$GPGSV,4,4,13,17,06,241,*4C
,1523992982000
NMEA,$GLGSV,3,1,9,79,45,074,,84,41,259,,69,34,199,,83,31,333,*56
,1523992982000
NMEA,$GLGSV,3,2,9,78,28,126,,68,27,139,,80,17,007,,85,09,213,*50
,1523992982000
Raw,185519079,1208028200500000000,18,161.50682986994306,-413904,0.48345361795509234,161.50682986994306,85.31358686424196,1.6248646858144036,0,16,-413903.51654638204,10,20000,162,20.0,-1565.8477783203125,0.1499999,0,0.0,0.0,1.57542003E9,,,,0,3.0102999566398125,1,,1.57542003E9
Raw,185519080,1208028200500000000,18,161.50682986994306,-413904,0.48345361795509234,161.50682986994306,85.31358686424196,1.6248646858144036,0,18,-413903.51654638204,10,20000,162,26.0,1767.742431640625,0.1499999,0,0.0,0.0,1.57542003E9,,,,0,9.010299956639813,1,,1.57542003E9
Raw,185519082,1208028200500000000,18,161.50682986994306,-413904,0.48345361795509234,161.50682986994306,85.31358686424196,1.6248646858144036,0,22,-413903.51654638204,8,242600500000000,162,28.0,-262.1659851074219,0.1499999,0,0.0,0.0,1.57542003E9,,,,0,11.010299956639813,1,,1.57542003E9
Raw,185519083,1208028200500000000,18,161.50682986994306,-413904,0.48345361795509234,161.50682986994306,85.31358686424196,1.6248646858144036,0,23,-413903.51654638204,10,20000,162,21.0,-497.6732177734375,0.1499999,0,0.0,0.0,1.57542003E9,,,,0,4.0102999566398125,1,,1.57542003E9
Raw,185519084,1208028200500000000,18,161.50682986994306,-413904,0.48345361795509234,161.50682986994306,85.31358686424196,1.6248646858144036,0,31,-413903.51654638204,10,20000,162,26.0,2545.943115234375,0.1499999,0,0.0,0.0,1.57542003E9,,,,0,9.010299956639813,1,,1.57542003E9
NMEA,$GLGSV,3,3,9,70,05,249,*61
,1523992982000
NMEA,$GNRMC,192302.500,A,2207.2088,S,05124.5151,W,0.000,0.00,170418,,,A*4D
,1523992982000
NMEA,$GNVTG,0.00,T,,M,0.000,N,0.000,K,A*23
,1523992982000
NMEA,$GNACCURACY,5.0*13
,1523992982000
NMEA,$GNGGA,192304.000,2207.2089,S,05124.5149,W,1,7,1.45,418.6,M,-2.7,M,,*5B
,1523992984000
NMEA,$GPGSA,A,3,22,03,18,31,11,23,01,,,,,,1.74,1.45,0.96*07
,1523992984000
NMEA,$GLGSA,A,3,,,,,,,,,,,,,1.74,1.45,0.96*13
,1523992984000
NMEA,$GPGSV,4,1,13,01,77,292,24.4,18,61,002,23.7,22,58,152,24.7,11,51,317,18.9*75
,1523992984000
NMEA,$GPGSV,4,2,13,23,49,251,17.8,03,47,193,13.7,31,28,134,23.1,09,19,282,*6E
,1523992984000
NMEA,$GPGSV,4,3,13,26,12,077,,14,10,134,,16,09,050,15.5,08,08,348,*62
,1523992984000
NMEA,$GPGSV,4,4,13,17,06,241,*4C
,1523992984000
NMEA,$GLGSV,3,1,9,79,45,074,,84,41,259,,69,34,199,,83,31,333,*56
,1523992984000
NMEA,$GLGSV,3,2,9,78,28,126,,68,27,139,,80,17,007,,85,09,213,*50
,1523992984000
Fix,gps,-22.120148,-51.408582,418.600000,0.000000,4.900000,1523992984000
NMEA,$GLGSV,3,3,9,70,05,249,*61
,1523992984000
NMEA,$GNRMC,192304.000,A,2207.2089,S,05124.5149,W,0.000,0.00,170418,,,A*46
,1523992984000
NMEA,$GNVTG,0.00,T,,M,0.000,N,0.000,K,A*23
,1523992984000
NMEA,$GNACCURACY,4.9*1B
,1523992984000
Raw,185520652,1208028202000000000,18,150.8102412593087,-413771,-0.4355870973668061,150.8102412593087,85.14282240611249,2.0018739459838253,0,3,-413771.43558709737,8,242602000000000,151,16.0,-1338.643310546875,0.1499999,0,0.0,0.0,1.57542003E9,,,,0,0.0,1,,1.57542003E9
Raw,185520653,1208028202000000000,18,150.8102412593087,-413771,-0.4355870973668061,150.8102412593087,85.14282240611249,2.0018739459838253,0,16,-413771.43558709737,10,20000,151,19.0,-1567.7091064453125,0.1499999,0,0.0,0.0,1.57542003E9,,,,0,2.0102999566398125,1,,1.57542003E9
Raw,185520655,1208028202000000000,18,150.8102412593087,-413771,-0.4355870973668061,150.8102412593087,85.14282240611249,2.0018739459838253,0,18,-413771.43558709737,10,20000,151,25.0,1769.9791259765625,0.1499999,0,0.0,0.0,1.57542003E9,,,,0,8.010299956639813,1,,1.57542003E9
Raw,185520657,1208028202000000000,18,150.8102412593087,-413771,-0.4355870973668061,150.8102412593087,85.14282240611249,2.0018739459838253,0,22,-413771.43558709737,8,242602000000000,151,28.0,-261.0412292480469,0.1499999,0,0.0,0.0,1.57542003E9,,,,0,11.010299956639813,1,,1.57542003E9
Raw,185520658,1208028202000000000,18,150.8102412593087,-413771,-0.4355870973668061,150.8102412593087,85.14282240611249,2.0018739459838253,0,23,-413771.43558709737,10,20000,151,20.0,-497.6759033203125,0.1499999,0,0.0,0.0,1.57542003E9,,,,0,3.0102999566398125,1,,1.57542003E9
Raw,185520659,1208028202000000000,18,150.8102412593087,-413771,-0.4355870973668061,150.8102412593087,85.14282240611249,2.0018739459838253,0,31,-413771.43558709737,10,20000,151,28.0,2546.287353515625,0.1499999,0,0.0,0.0,1.57542003E9,,,,0,11.010299956639813,1,,1.57542003E9
NMEA,$GNGGA,192305.000,2207.2090,S,05124.5148,W,1,7,1.45,419.0,M,-2.7,M,,*54
,1523992985000
NMEA,$GPGSA,A,3,22,03,18,31,11,23,01,,,,,,1.74,1.45,0.96*07
,1523992985000
NMEA,$GLGSA,A,3,,,,,,,,,,,,,1.74,1.45,0.96*13
,1523992985000
NMEA,$GPGSV,4,1,13,01,77,292,24.5,18,61,002,23.6,22,58,152,24.5,11,51,317,18.9*77
,1523992985000
NMEA,$GPGSV,4,2,13,23,49,251,17.7,03,47,193,13.7,31,28,134,23.5,09,19,282,*65
,1523992985000
NMEA,$GPGSV,4,3,13,26,12,077,,14,10,134,,16,09,050,15.3,08,08,348,*64
,1523992985000
NMEA,$GPGSV,4,4,13,17,06,241,*4C
,1523992985000
NMEA,$GLGSV,3,1,9,79,45,074,,84,41,259,,69,34,199,,83,31,333,*56
,1523992985000
NMEA,$GLGSV,3,2,9,78,28,126,,68,27,139,,80,17,007,,85,09,213,*50
,1523992985000
NMEA,$GLGSV,3,3,9,70,05,249,*61
,1523992985000
Fix,gps,-22.120150,-51.408580,419.000000,0.000000,4.800000,1523992985000
NMEA,$GNRMC,192305.000,A,2207.2090,S,05124.5148,W,0.000,0.00,170418,,,A*4E
,1523992985000
NMEA,$GNVTG,0.00,T,,M,0.000,N,0.000,K,A*23
,1523992985000
NMEA,$GNACCURACY,4.8*1A
,1523992985000
Raw,185521658,1208028203000000000,18,147.6069855935226,-413684,0.33912690228316933,147.6069855935226,85.27464762352122,2.3752358588660627,0,3,-413683.6608730977,8,242603000000000,148,15.0,-1336.2099609375,0.1499999,0,0.0,0.0,1.57542003E9,,,,0,0.0,1,,1.57542003E9
Raw,185521659,1208028203000000000,18,147.6069855935226,-413684,0.33912690228316933,147.6069855935226,85.27464762352122,2.3752358588660627,0,11,-413683.6608730977,10,20000,148,22.0,1428.794921875,0.1499999,0,0.0,0.0,1.57542003E9,,,,0,5.0102999566398125,1,,1.57542003E9
Raw,185521660,1208028203000000000,18,147.6069855935226,-413684,0.33912690228316933,147.6069855935226,85.27464762352122,2.3752358588660627,0,16,-413683.6608730977,10,20000,148,20.0,-1570.1229248046875,0.1499999,0,0.0,0.0,1.57542003E9,,,,0,3.0102999566398125,1,,1.57542003E9
Raw,185521661,1208028203000000000,18,147.6069855935226,-413684,0.33912690228316933,147.6069855935226,85.27464762352122,2.3752358588660627,0,18,-413683.6608730977,10,20000,148,27.0,1770.57666015625,0.1499999,0,0.0,0.0,1.57542003E9,,,,0,10.010299956639813,1,,1.57542003E9
Raw,185521662,1208028203000000000,18,147.6069855935226,-413684,0.33912690228316933,147.6069855935226,85.27464762352122,2.3752358588660627,0,22,-413683.6608730977,8,242603000000000,148,27.0,-258.572509765625,0.1499999,0,0.0,0.0,1.57542003E9,,,,0,10.010299956639813,1,,1.57542003E9
Raw,185521663,1208028203000000000,18,147.6069855935226,-413684,0.33912690228316933,147.6069855935226,85.27464762352122,2.3752358588660627,0,23,-413683.6608730977,10,20000,148,20.0,-496.6815185546875,0.1499999,0,0.0,0.0,1.57542003E9,,,,0,3.0102999566398125,1,,1.57542003E9
Raw,185521664,1208028203000000000,18,147.6069855935226,-413684,0.33912690228316933,147.6069855935226,85.27464762352122,2.3752358588660627,0,31,-413683.6608730977,10,20000,148,27.0,2547.103515625,0.1499999,0,0.0,0.0,1.57542003E9,,,,0,10.010299956639813,1,,1.57542003E9
Fix,gps,-22.120150,-51.408578,419.200000,0.000000,4.800000,1523992986000
NMEA,$GNGGA,192306.000,2207.2090,S,05124.5147,W,1,7,1.45,419.2,M,-2.7,M,,*5A
,1523992986000
NMEA,$GPGSA,A,3,22,03,18,31,11,23,01,,,,,,1.74,1.45,0.96*07
,1523992986000
NMEA,$GLGSA,A,3,,,,,,,,,,,,,1.74,1.45,0.96*13
,1523992986000
NMEA,$GPGSV,4,1,13,01,77,292,24.6,18,61,002,23.2,22,58,152,24.0,11,51,317,19.2*7F
,1523992986000
NMEA,$GPGSV,4,2,13,23,49,251,17.6,03,47,193,13.7,31,28,134,23.8,09,19,282,*69
,1523992986000
NMEA,$GPGSV,4,3,13,26,12,077,,14,10,134,,16,09,050,15.6,08,08,348,*61
,1523992986000
NMEA,$GPGSV,4,4,13,17,06,241,*4C
,1523992986000
NMEA,$GLGSV,3,1,9,79,45,074,,84,41,259,,69,34,199,,83,31,333,*56
,1523992986000
NMEA,$GLGSV,3,2,9,78,28,126,,68,27,139,,80,17,007,,85,09,213,*50
,1523992986000
NMEA,$GLGSV,3,3,9,70,05,249,*61
,1523992986000
NMEA,$GNRMC,192306.000,A,2207.2090,S,05124.5147,W,0.000,0.00,170418,,,A*42
,1523992986000
NMEA,$GNVTG,0.00,T,,M,0.000,N,0.000,K,A*23
,1523992986000
NMEA,$GNACCURACY,4.8*1A
,1523992986000
Raw,185522618,1208028204000000000,18,147.914599424143,-413597,0.4269340372411534,147.914599424143,85.37447458272018,2.5222882727106026,0,3,-413596.57306596276,8,242604000000000,148,16.0,-1341.33154296875,0.1499999,0,0.0,0.0,1.57542003E9,,,,0,0.0,1,,1.57542003E9
Raw,185522620,1208028204000000000,18,147.914599424143,-413597,0.4269340372411534,147.914599424143,85.37447458272018,2.5222882727106026,0,16,-413596.57306596276,10,20000,148,20.0,-1570.556884765625,0.1499999,0,0.0,0.0,1.57542003E9,,,,0,3.0102999566398125,1,,1.57542003E9
Raw,185522621,1208028204000000000,18,147.914599424143,-413597,0.4269340372411534,147.914599424143,85.37447458272018,2.5222882727106026,0,18,-413596.57306596276,10,20000,148,26.0,1771.9915771484375,0.1499999,0,0.0,0.0,1.57542003E9,,,,0,9.010299956639813,1,,1.57542003E9
Raw,185522622,1208028204000000000,18,147.914599424143,-413597,0.4269340372411534,147.914599424143,85.37447458272018,2.5222882727106026,0,22,-413596.57306596276,8,242604000000000,148,26.0,-260.9076843261719,0.1499999,0,0.0,0.0,1.57542003E9,,,,0,9.010299956639813,1,,1.57542003E9
Raw,185522626,1208028204000000000,18,147.914599424143,-413597,0.4269340372411534,147.914599424143,85.37447458272018,2.5222882727106026,0,23,-413596.57306596276,10,20000,148,20.0,-494.5941162109375,0.1499999,0,0.0,0.0,1.57542003E9,,,,0,3.0102999566398125,1,,1.57542003E9
Raw,185522629,1208028204000000000,18,147.914599424143,-413597,0.4269340372411534,147.914599424143,85.37447458272018,2.5222882727106026,0,31,-413596.57306596276,10,20000,148,28.0,2548.97607421875,0.1499999,0,0.0,0.0,1.57542003E9,,,,0,11.010299956639813,1,,1.57542003E9
NMEA,$GNGGA,192307.000,2207.2095,S,05124.5150,W,1,6,1.67,419.5,M,-2.7,M,,*5E
,1523992987000
NMEA,$GPGSA,A,3,22,18,31,11,23,01,,,,,,,1.92,1.67,0.96*0C
,1523992987000
NMEA,$GLGSA,A,3,,,,,,,,,,,,,1.92,1.67,0.96*1B
,1523992987000
NMEA,$GPGSV,4,1,13,01,77,292,24.6,18,61,002,23.2,22,58,152,23.9,11,51,317,19.6*75
,1523992987000
NMEA,$GPGSV,4,2,13,23,49,251,17.7,03,47,193,,31,28,134,24.0,09,19,282,*7C
,1523992987000
NMEA,$GPGSV,4,3,13,26,12,077,,14,10,134,,16,09,050,15.8,08,08,348,*6F
,1523992987000
NMEA,$GPGSV,4,4,13,17,06,241,*4C
,1523992987000
NMEA,$GLGSV,3,1,9,79,45,074,,84,41,259,,69,34,199,,83,31,333,*56
,1523992987000
NMEA,$GLGSV,3,2,9,78,28,126,,68,27,139,,80,17,007,,85,09,213,*50
,1523992987000
NMEA,$GLGSV,3,3,9,70,05,249,*61
,1523992987000
NMEA,$GNRMC,192307.000,A,2207.2095,S,05124.5150,W,0.000,0.00,170418,,,A*40
,1523992987000
Fix,gps,-22.120158,-51.408583,419.500000,0.000000,4.700000,1523992987000
NMEA,$GNVTG,0.00,T,,M,0.000,N,0.000,K,A*23
,1523992987000
NMEA,$GNACCURACY,4.7*15
,1523992987000
Raw,185523647,1208028205000000000,18,141.142527069204,-413509,-0.3953084126114845,141.142527069204,85.41880638483835,2.482391721166456,0,16,-413509.3953084126,10,20000,141,19.0,-1570.9132080078125,0.1499999,0,0.0,0.0,1.57542003E9,,,,0,2.0102999566398125,1,,1.57542003E9
Raw,185523648,1208028205000000000,18,141.142527069204,-413509,-0.3953084126114845,141.142527069204,85.41880638483835,2.482391721166456,0,18,-413509.3953084126,10,20000,141,27.0,1771.4007568359375,0.1499999,0,0.0,0.0,1.57542003E9,,,,0,10.010299956639813,1,,1.57542003E9
Raw,185523650,1208028205000000000,18,141.142527069204,-413509,-0.3953084126114845,141.142527069204,85.41880638483835,2.482391721166456,0,22,-413509.3953084126,8,242605000000000,141,28.0,-260.0911560058594,0.1499999,0,0.0,0.0,1.57542003E9,,,,0,11.010299956639813,1,,1.57542003E9
Raw,185523651,1208028205000000000,18,141.142527069204,-413509,-0.3953084126114845,141.142527069204,85.41880638483835,2.482391721166456,0,23,-413509.3953084126,10,20000,141,21.0,-493.2384033203125,0.1499999,0,0.0,0.0,1.57542003E9,,,,0,4.0102999566398125,1,,1.57542003E9
Raw,185523652,1208028205000000000,18,141.142527069204,-413509,-0.3953084126114845,141.142527069204,85.41880638483835,2.482391721166456,0,31,-413509.3953084126,10,20000,141,27.0,2547.712646484375,0.1499999,0,0.0,0.0,1.57542003E9,,,,0,10.010299956639813,1,,1.57542003E9
Fix,gps,-22.120163,-51.408585,419.600000,0.000000,4.700000,1523992988000
NMEA,$GNGGA,192308.000,2207.2098,S,05124.5151,W,1,6,1.67,419.6,M,-2.7,M,,*5E
,1523992988000
NMEA,$GPGSA,A,3,22,18,31,11,23,01,,,,,,,1.92,1.67,0.96*0C
,1523992988000
NMEA,$GLGSA,A,3,,,,,,,,,,,,,1.92,1.67,0.96*1B
,1523992988000
NMEA,$GPGSV,4,1,13,01,77,292,24.8,18,61,002,22.8,22,58,151,23.9,11,51,317,19.6*73
,1523992988000
NMEA,$GPGSV,4,2,13,23,49,251,17.9,03,47,193,,31,28,134,24.2,09,19,282,*70
,1523992988000
NMEA,$GPGSV,4,3,13,26,12,077,,14,10,134,,16,09,050,16.0,08,08,348,*64
,1523992988000
NMEA,$GPGSV,4,4,13,17,06,241,*4C
,1523992988000
Raw,185524611,1208028206000000000,18,138.95085328223863,-413423,0.14897734858095646,138.95085328223863,85.4801205816137,2.491823727451766,0,16,-413422.8510226514,10,20000,139,20.0,-1573.9119873046875,0.1499999,0,0.0,0.0,1.57542003E9,,,,0,3.0102999566398125,1,,1.57542003E9
Raw,185524612,1208028206000000000,18,138.95085328223863,-413423,0.14897734858095646,138.95085328223863,85.4801205816137,2.491823727451766,0,18,-413422.8510226514,8,242606000000000,139,25.0,1772.027587890625,0.1499999,0,0.0,0.0,1.57542003E9,,,,0,8.010299956639813,1,,1.57542003E9
Raw,185524613,1208028206000000000,18,138.95085328223863,-413423,0.14897734858095646,138.95085328223863,85.4801205816137,2.491823727451766,0,22,-413422.8510226514,8,242606000000000,139,27.0,-259.1885681152344,0.1499999,0,0.0,0.0,1.57542003E9,,,,0,10.010299956639813,1,,1.57542003E9
Raw,185524614,1208028206000000000,18,138.95085328223863,-413423,0.14897734858095646,138.95085328223863,85.4801205816137,2.491823727451766,0,23,-413422.8510226514,10,20000,139,22.0,-491.6339111328125,0.1499999,0,0.0,0.0,1.57542003E9,,,,0,5.0102999566398125,1,,1.57542003E9
Raw,185524615,1208028206000000000,18,138.95085328223863,-413423,0.14897734858095646,138.95085328223863,85.4801205816137,2.491823727451766,0,31,-413422.8510226514,10,242606000000000,139,28.0,2548.319091796875,0.1499999,0,0.0,0.0,1.57542003E9,,,,0,11.010299956639813,1,,1.57542003E9
NMEA,$GLGSV,3,1,9,79,45,074,,84,41,259,,69,34,199,,83,31,333,*56
,1523992988000
NMEA,$GLGSV,3,2,9,78,28,126,,68,27,139,,80,17,007,,85,09,213,*50
,1523992988000
NMEA,$GLGSV,3,3,9,70,05,249,*61
,1523992988000
NMEA,$GNRMC,192308.000,A,2207.2098,S,05124.5151,W,0.000,0.00,170418,,,A*43
,1523992988000
NMEA,$GNVTG,0.00,T,,M,0.000,N,0.000,K,A*23
,1523992988000
NMEA,$GNACCURACY,4.7*15
,1523992988000
NMEA,$GNGGA,192309.000,2207.2101,S,05124.5155,W,1,6,1.67,419.6,M,-2.7,M,,*5A
,1523992989000
Fix,gps,-22.120168,-51.408592,419.600000,0.000000,4.600000,1523992989000
NMEA,$GPGSA,A,3,22,18,31,11,23,01,,,,,,,1.92,1.67,0.96*0C
,1523992989000
NMEA,$GLGSA,A,3,,,,,,,,,,,,,1.92,1.67,0.96*1B
,1523992989000
NMEA,$GPGSV,4,1,13,01,77,292,24.6,18,61,002,22.7,22,58,151,24.2,11,51,317,19.6*7E
,1523992989000
NMEA,$GPGSV,4,2,13,23,49,251,18.7,03,47,193,,31,28,134,25.1,09,19,282,*73
,1523992989000
NMEA,$GPGSV,4,3,13,26,12,077,,14,10,134,,16,09,050,16.2,08,08,348,*66
,1523992989000
NMEA,$GPGSV,4,4,13,17,06,241,*4C
,1523992989000
NMEA,$GLGSV,3,1,9,79,45,074,,84,41,259,,69,34,199,,83,31,333,*56
,1523992989000
NMEA,$GLGSV,3,2,9,78,28,126,,68,27,139,,80,17,007,,85,09,213,*50
,1523992989000
NMEA,$GLGSV,3,3,9,70,05,249,*61
,1523992989000
Raw,185525599,1208028207000000000,18,133.47149703460957,-413337,0.24171871761791408,133.47149703460957,85.38036060355759,2.3731214114199353,0,16,-413336.7582812824,10,20000,133,19.0,-1574.3414306640625,0.1499999,0,0.0,0.0,1.57542003E9,,,,0,2.0102999566398125,1,,1.57542003E9
Raw,185525600,1208028207000000000,18,133.47149703460957,-413337,0.24171871761791408,133.47149703460957,85.38036060355759,2.3731214114199353,0,18,-413336.7582812824,8,242607000000000,133,25.0,1773.11962890625,0.1499999,0,0.0,0.0,1.57542003E9,,,,0,8.010299956639813,1,,1.57542003E9
Raw,185525601,1208028207000000000,18,133.47149703460957,-413337,0.24171871761791408,133.47149703460957,85.38036060355759,2.3731214114199353,0,22,-413336.7582812824,8,242607000000000,133,27.0,-259.28875732421875,0.1499999,0,0.0,0.0,1.57542003E9,,,,0,10.010299956639813,1,,1.57542003E9
Raw,185525602,1208028207000000000,18,133.47149703460957,-413337,0.24171871761791408,133.47149703460957,85.38036060355759,2.3731214114199353,0,23,-413336.7582812824,10,20000,133,23.0,-493.3692626953125,0.1499999,0,0.0,0.0,1.57542003E9,,,,0,6.0102999566398125,1,,1.57542003E9
Raw,185525603,1208028207000000000,18,133.47149703460957,-413337,0.24171871761791408,133.47149703460957,85.38036060355759,2.3731214114199353,0,31,-413336.7582812824,10,242607000000000,133,30.0,2548.832763671875,0.1499999,0,0.0,0.0,1.57542003E9,,,,0,13.010299956639813,1,,1.57542003E9
NMEA,$GNRMC,192309.000,A,2207.2101,S,05124.5155,W,0.000,0.00,170418,,,A*47
,1523992989000
NMEA,$GNVTG,0.00,T,,M,0.000,N,0.000,K,A*23
,1523992989000
NMEA,$GNACCURACY,4.6*14
,1523992989000
NMEA,$GNGGA,192310.000,2207.2105,S,05124.5157,W,1,6,1.67,419.4,M,-2.7,M,,*56
,1523992990000
NMEA,$GPGSA,A,3,22,18,31,11,23,01,,,,,,,1.92,1.67,0.96*0C
,1523992990000
NMEA,$GLGSA,A,3,,,,,,,,,,,,,1.92,1.67,0.96*1B
,1523992990000
NMEA,$GPGSV,4,1,13,01,77,292,27.4,18,61,002,22.2,22,58,151,25.0,11,51,317,19.7*78
,1523992990000
NMEA,$GPGSV,4,2,13,23,49,251,18.8,03,47,193,,31,28,134,25.4,09,19,282,*79
,1523992990000
NMEA,$GPGSV,4,3,13,26,12,077,,14,10,134,,16,09,050,16.3,08,08,348,*67
,1523992990000
NMEA,$GPGSV,4,4,13,17,06,241,*4C
,1523992990000
NMEA,$GLGSV,3,1,9,79,45,074,,84,41,259,,69,34,199,,83,31,333,*56
,1523992990000
NMEA,$GLGSV,3,2,9,78,28,126,,68,27,139,,80,17,007,,85,09,213,*50
,1523992990000
NMEA,$GLGSV,3,3,9,70,05,249,*61
,1523992990000
Raw,185526624,1208028208000000000,18,130.39149049243832,-413251,-0.1230826114770025,130.39149049243832,85.52703648333282,2.4724574963339983,0,16,-413251.1230826115,10,20000,130,17.0,-1575.4827880859375,0.1499999,0,0.0,0.0,1.57542003E9,,,,0,0.010299956639812535,1,,1.57542003E9
Raw,185526625,1208028208000000000,18,130.39149049243832,-413251,-0.1230826114770025,130.39149049243832,85.52703648333282,2.4724574963339983,0,18,-413251.1230826115,8,242608000000000,130,24.0,1775.8099365234375,0.1499999,0,0.0,0.0,1.57542003E9,,,,0,7.0102999566398125,1,,1.57542003E9
Raw,185526626,1208028208000000000,18,130.39149049243832,-413251,-0.1230826114770025,130.39149049243832,85.52703648333282,2.4724574963339983,0,22,-413251.1230826115,8,242608000000000,130,29.0,-259.72235107421875,0.1499999,0,0.0,0.0,1.57542003E9,,,,0,12.010299956639813,1,,1.57542003E9
Raw,185526627,1208028208000000000,18,130.39149049243832,-413251,-0.1230826114770025,130.39149049243832,85.52703648333282,2.4724574963339983,0,23,-413251.1230826115,10,20000,130,22.0,-493.7786865234375,0.1499999,0,0.0,0.0,1.57542003E9,,,,0,5.0102999566398125,1,,1.57542003E9
Raw,185526628,1208028208000000000,18,130.39149049243832,-413251,-0.1230826114770025,130.39149049243832,85.52703648333282,2.4724574963339983,0,31,-413251.1230826115,10,242608000000000,130,29.0,2549.886474609375,0.1499999,0,0.0,0.0,1.57542003E9,,,,0,12.010299956639813,1,,1.57542003E9
NMEA,$GNRMC,192310.000,A,2207.2105,S,05124.5157,W,0.000,0.00,170418,,,A*49
,1523992990000
NMEA,$GNVTG,0.00,T,,M,0.000,N,0.000,K,A*23
,1523992990000
Fix,gps,-22.120175,-51.408595,419.400000,0.000000,4.600000,1523992990000
NMEA,$GNACCURACY,4.6*14
,1523992990000
NMEA,$GNGGA,192311.000,2207.2107,S,05124.5160,W,1,7,1.45,419.0,M,-2.7,M,,*54
,1523992991000
NMEA,$GPGSA,A,3,22,03,18,31,11,23,01,,,,,,1.74,1.45,0.96*07
,1523992991000
NMEA,$GLGSA,A,3,,,,,,,,,,,,,1.74,1.45,0.96*13
,1523992991000
NMEA,$GPGSV,4,1,13,01,77,292,27.3,18,61,002,21.9,22,58,151,25.5,11,51,317,19.4*71
,1523992991000
NMEA,$GPGSV,4,2,13,23,49,251,18.8,03,47,193,21.8,31,28,134,25.2,09,19,282,*6A
,1523992991000
NMEA,$GPGSV,4,3,13,26,12,077,,14,10,134,,16,09,050,15.2,08,08,348,*65
,1523992991000
NMEA,$GPGSV,4,4,13,17,06,241,*4C
,1523992991000
NMEA,$GLGSV,3,1,9,79,45,074,,84,41,259,,69,34,199,,83,31,333,*56
,1523992991000
NMEA,$GLGSV,3,2,9,78,28,126,,68,27,139,,80,17,007,,85,09,213,*50
,1523992991000
NMEA,$GLGSV,3,3,9,70,05,249,*61
,1523992991000
NMEA,$GNRMC,192311.000,A,2207.2107,S,05124.5160,W,0.000,0.00,170418,,,A*4E
,1523992991000
NMEA,$GNVTG,0.00,T,,M,0.000,N,0.000,K,A*23
,1523992991000
NMEA,$GNACCURACY,4.6*14
,1523992991000
Fix,gps,-22.120178,-51.408600,419.000000,0.000000,4.600000,1523992991000
Raw,185527628,1208028209000000000,18,127.47839069757828,-413166,-0.30128582811448723,127.47839069757828,85.40898892549288,2.5015370636041445,0,16,-413166.3012858281,10,20000,127,15.0,-1575.7279052734375,0.1499999,0,0.0,0.0,1.57542003E9,,,,0,0.0,1,,1.57542003E9
Raw,185527629,1208028209000000000,18,127.47839069757828,-413166,-0.30128582811448723,127.47839069757828,85.40898892549288,2.5015370636041445,0,18,-413166.3012858281,8,242609000000000,127,20.0,1774.0836181640625,0.1499999,0,0.0,0.0,1.57542003E9,,,,0,3.0102999566398125,1,,1.57542003E9
Raw,185527630,1208028209000000000,18,127.47839069757828,-413166,-0.30128582811448723,127.47839069757828,85.40898892549288,2.5015370636041445,0,22,-413166.3012858281,8,242609000000000,127,30.0,-258.7452392578125,0.1499999,0,0.0,0.0,1.57542003E9,,,,0,13.010299956639813,1,,1.57542003E9
Raw,185527632,1208028209000000000,18,127.47839069757828,-413166,-0.30128582811448723,127.47839069757828,85.40898892549288,2.5015370636041445,0,23,-413166.3012858281,10,20000,127,21.0,-495.2186279296875,0.1499999,0,0.0,0.0,1.57542003E9,,,,0,4.0102999566398125,1,,1.57542003E9
Raw,185527633,1208028209000000000,18,127.47839069757828,-413166,-0.30128582811448723,127.47839069757828,85.40898892549288,2.5015370636041445,0,31,-413166.3012858281,10,242609000000000,127,28.0,2550.01318359375,0.1499999,0,0.0,0.0,1.57542003E9,,,,0,11.010299956639813,1,,1.57542003E9
NMEA,$GNGGA,192312.000,2207.2108,S,05124.5162,W,1,7,1.45,418.6,M,-2.7,M,,*5D
,1523992992000
Fix,gps,-22.120180,-51.408603,418.600000,0.000000,4.600000,1523992992000
NMEA,$GPGSA,A,3,22,03,18,31,11,23,01,,,,,,1.74,1.45,0.96*07
,1523992992000
NMEA,$GLGSA,A,3,,,,,,,,,,,,,1.74,1.45,0.96*13
,1523992992000
NMEA,$GPGSV,4,1,13,01,77,292,27.1,18,61,002,21.2,22,58,151,25.8,11,51,317,19.4*75
,1523992992000
NMEA,$GPGSV,4,2,13,23,49,251,18.7,03,47,193,21.4,31,28,134,25.1,09,19,282,*6A
,1523992992000
NMEA,$GPGSV,4,3,13,26,12,077,,14,10,134,,16,09,050,14.5,08,08,348,*63
,1523992992000
NMEA,$GPGSV,4,4,13,17,06,241,*4C
,1523992992000
NMEA,$GLGSV,3,1,9,79,45,074,,84,41,259,,69,34,199,,83,31,333,*56
,1523992992000
NMEA,$GLGSV,3,2,9,78,28,126,,68,27,139,,80,17,007,,85,09,213,*50
,1523992992000
NMEA,$GLGSV,3,3,9,70,05,249,*61
,1523992992000
NMEA,$GNRMC,192312.000,A,2207.2108,S,05124.5162,W,0.000,0.00,170418,,,A*40
,1523992992000
NMEA,$GNVTG,0.00,T,,M,0.000,N,0.000,K,A*23
,1523992992000
NMEA,$GNACCURACY,4.6*14
,1523992992000
Raw,185528644,1208028210000000000,18,129.05229193121912,-413081,-0.11943489161785692,129.05229193121912,85.73868033855193,2.3919514258228745,0,3,-413081.1194348916,8,242610000000000,129,24.0,-1342.9462890625,0.1499999,0,0.0,0.0,1.57542003E9,,,,0,7.0102999566398125,1,,1.57542003E9
Raw,185528645,1208028210000000000,18,129.05229193121912,-413081,-0.11943489161785692,129.05229193121912,85.73868033855193,2.3919514258228745,0,16,-413081.1194348916,10,20000,129,15.0,-1580.6370849609375,0.1499999,0,0.0,0.0,1.57542003E9,,,,0,0.0,1,,1.57542003E9
Raw,185528646,1208028210000000000,18,129.05229193121912,-413081,-0.11943489161785692,129.05229193121912,85.73868033855193,2.3919514258228745,0,18,-413081.1194348916,8,242610000000000,129,13.0,1778.5418701171875,0.1499999,0,0.0,0.0,1.57542003E9,,,,0,0.0,1,,1.57542003E9
Raw,185528647,1208028210000000000,18,129.05229193121912,-413081,-0.11943489161785692,129.05229193121912,85.73868033855193,2.3919514258228745,0,22,-413081.1194348916,8,242610000000000,129,29.0,-257.67449951171875,0.1499999,0,0.0,0.0,1.57542003E9,,,,0,12.010299956639813,1,,1.57542003E9
Raw,185528649,1208028210000000000,18,129.05229193121912,-413081,-0.11943489161785692,129.05229193121912,85.73868033855193,2.3919514258228745,0,23,-413081.1194348916,10,20000,129,20.0,-494.7132568359375,0.1499999,0,0.0,0.0,1.57542003E9,,,,0,3.0102999566398125,1,,1.57542003E9
Raw,185528650,1208028210000000000,18,129.05229193121912,-413081,-0.11943489161785692,129.05229193121912,85.73868033855193,2.3919514258228745,0,31,-413081.1194348916,10,242610000000000,129,28.0,2550.0390625,0.1499999,0,0.0,0.0,1.57542003E9,,,,0,11.010299956639813,1,,1.57542003E9
NMEA,$GNGGA,192313.000,2207.2110,S,05124.5164,W,1,7,1.45,418.3,M,-2.7,M,,*56
,1523992993000
NMEA,$GPGSA,A,3,22,03,18,31,11,23,01,,,,,,1.74,1.45,0.96*07
,1523992993000
NMEA,$GLGSA,A,3,,,,,,,,,,,,,1.74,1.45,0.96*13
,1523992993000
NMEA,$GPGSV,4,1,13,01,77,292,27.3,18,61,002,19.8,22,58,151,25.6,11,51,317,19.2*7E
,1523992993000
NMEA,$GPGSV,4,2,13,23,49,251,18.5,03,47,193,21.1,31,28,134,25.3,09,19,282,*6F
,1523992993000
NMEA,$GPGSV,4,3,13,26,12,077,,14,10,134,,16,09,050,,08,08,348,*7D
,1523992993000
NMEA,$GPGSV,4,4,13,17,06,241,*4C
,1523992993000
Fix,gps,-22.120183,-51.408607,418.300000,0.000000,4.500000,1523992993000
NMEA,$GLGSV,3,1,9,79,45,074,,84,41,259,,69,34,199,,83,31,333,*56
,1523992993000
NMEA,$GLGSV,3,2,9,78,28,126,,68,27,139,,80,17,007,,85,09,213,*50
,1523992993000
NMEA,$GLGSV,3,3,9,70,05,249,*61
,1523992993000
NMEA,$GNRMC,192313.000,A,2207.2110,S,05124.5164,W,0.000,0.00,170418,,,A*4E
,1523992993000
NMEA,$GNVTG,0.00,T,,M,0.000,N,0.000,K,A*23
,1523992993000
NMEA,$GNACCURACY,4.5*17
,1523992993000
Raw,185529647,1208028211000000000,18,125.91071172508215,-412996,0.40527722879778594,125.91071172508215,86.02089925345625,2.3196202246716386,0,3,-412995.5947227712,8,242611000000000,126,23.0,-1341.93212890625,0.1499999,0,0.0,0.0,1.57542003E9,,,,0,6.0102999566398125,1,,1.57542003E9
Raw,185529648,1208028211000000000,18,125.91071172508215,-412996,0.40527722879778594,125.91071172508215,86.02089925345625,2.3196202246716386,0,18,-412995.5947227712,8,242611000000000,126,21.0,1778.0369873046875,0.1499999,0,0.0,0.0,1.57542003E9,,,,0,4.0102999566398125,1,,1.57542003E9
Raw,185529650,1208028211000000000,18,125.91071172508215,-412996,0.40527722879778594,125.91071172508215,86.02089925345625,2.3196202246716386,0,22,-412995.5947227712,8,242611000000000,126,29.0,-257.25506591796875,0.1499999,0,0.0,0.0,1.57542003E9,,,,0,12.010299956639813,1,,1.57542003E9
Raw,185529652,1208028211000000000,18,125.91071172508215,-412996,0.40527722879778594,125.91071172508215,86.02089925345625,2.3196202246716386,0,23,-412995.5947227712,10,20000,126,22.0,-492.5240478515625,0.1499999,0,0.0,0.0,1.57542003E9,,,,0,5.0102999566398125,1,,1.57542003E9
Raw,185529653,1208028211000000000,18,125.91071172508215,-412996,0.40527722879778594,125.91071172508215,86.02089925345625,2.3196202246716386,0,31,-412995.5947227712,8,242611000000000,126,29.0,2550.96728515625,0.1499999,0,0.0,0.0,1.57542003E9,,,,0,12.010299956639813,1,,1.57542003E9
NMEA,$GNGGA,192314.000,2207.2111,S,05124.5167,W,1,7,1.45,417.9,M,-2.7,M,,*56
,1523992994000
Fix,gps,-22.120185,-51.408612,417.900000,0.000000,4.500000,1523992994000
NMEA,$GPGSA,A,3,22,03,18,31,11,23,01,,,,,,1.74,1.45,0.96*07
,1523992994000
NMEA,$GLGSA,A,3,,,,,,,,,,,,,1.74,1.45,0.96*13
,1523992994000
NMEA,$GPGSV,4,1,13,01,77,292,27.2,18,61,002,18.4,22,58,151,24.4,11,51,317,18.7*75
,1523992994000
NMEA,$GPGSV,4,2,13,23,49,251,18.3,03,47,193,21.1,31,28,134,25.2,09,19,282,*68
,1523992994000
NMEA,$GPGSV,4,3,13,26,12,077,,14,10,134,,16,09,050,,08,08,348,*7D
,1523992994000
NMEA,$GPGSV,4,4,13,17,06,241,*4C
,1523992994000
NMEA,$GLGSV,3,1,9,79,45,074,,84,41,259,,69,34,199,,83,31,333,*56
,1523992994000
NMEA,$GLGSV,3,2,9,78,28,126,,68,27,139,,80,17,007,,85,09,213,*50
,1523992994000
NMEA,$GLGSV,3,3,9,70,05,249,*61
,1523992994000
NMEA,$GNRMC,192314.000,A,2207.2111,S,05124.5167,W,0.000,0.00,170418,,,A*4B
,1523992994000
NMEA,$GNVTG,0.00,T,,M,0.000,N,0.000,K,A*23
,1523992994000
NMEA,$GNACCURACY,4.5*17
,1523992994000
Raw,185530613,1208028212000000000,18,126.63206138621432,-412911,-0.33898342482279986,126.63206138621432,85.36908115396103,2.4561429487000677,0,3,-412911.3389834248,8,242612000000000,127,20.0,-1343.562255859375,0.1499999,0,0.0,0.0,1.57542003E9,,,,0,3.0102999566398125,1,,1.57542003E9
Raw,185530615,1208028212000000000,18,126.63206138621432,-412911,-0.33898342482279986,126.63206138621432,85.36908115396103,2.4561429487000677,0,18,-412911.3389834248,8,242612000000000,127,22.0,1769.8062744140625,0.1499999,0,0.0,0.0,1.57542003E9,,,,0,5.0102999566398125,1,,1.57542003E9
Raw,185530617,1208028212000000000,18,126.63206138621432,-412911,-0.33898342482279986,126.63206138621432,85.36908115396103,2.4561429487000677,0,22,-412911.3389834248,8,242612000000000,127,26.0,-259.59967041015625,0.1499999,0,0.0,0.0,1.57542003E9,,,,0,9.010299956639813,1,,1.57542003E9
Raw,185530618,1208028212000000000,18,126.63206138621432,-412911,-0.33898342482279986,126.63206138621432,85.36908115396103,2.4561429487000677,0,23,-412911.3389834248,10,20000,127,22.0,-491.6822509765625,0.1499999,0,0.0,0.0,1.57542003E9,,,,0,5.0102999566398125,1,,1.57542003E9
Raw,185530619,1208028212000000000,18,126.63206138621432,-412911,-0.33898342482279986,126.63206138621432,85.36908115396103,2.4561429487000677,0,31,-412911.3389834248,8,242612000000000,127,28.0,2551.786376953125,0.1499999,0,0.0,0.0,1.57542003E9,,,,0,11.010299956639813,1,,1.57542003E9
Fix,gps,-22.120185,-51.408613,417.700000,0.000000,4.500000,1523992995000
NMEA,$GNGGA,192315.000,2207.2111,S,05124.5168,W,1,7,1.45,417.7,M,-2.7,M,,*56
,1523992995000
NMEA,$GPGSA,A,3,22,03,18,31,11,23,01,,,,,,1.74,1.45,0.96*07
,1523992995000
NMEA,$GLGSA,A,3,,,,,,,,,,,,,1.74,1.45,0.96*13
,1523992995000
NMEA,$GPGSV,4,1,13,01,77,292,27.2,18,61,002,17.8,22,58,151,24.0,11,51,317,18.7*72
,1523992995000
NMEA,$GPGSV,4,2,13,23,49,251,18.8,03,47,193,21.1,31,28,134,24.7,09,19,282,*67
,1523992995000
NMEA,$GPGSV,4,3,13,26,12,077,,14,10,134,,16,09,050,,08,08,348,*7D
,1523992995000
NMEA,$GPGSV,4,4,13,17,06,241,*4C
,1523992995000
NMEA,$GLGSV,3,1,9,79,45,074,,84,41,259,,69,34,199,,83,31,333,*56
,1523992995000
NMEA,$GLGSV,3,2,9,78,28,126,,68,27,139,,80,17,007,,85,09,213,*50
,1523992995000
NMEA,$GLGSV,3,3,9,70,05,249,*61
,1523992995000
NMEA,$GNRMC,192315.000,A,2207.2111,S,05124.5168,W,0.000,0.00,170418,,,A*45
,1523992995000
Raw,185531608,1208028213000000000,18,124.97417871381052,-412826,-0.10044715134426951,124.97417871381052,85.55611049042356,2.4705639375679507,0,3,-412826.10044715134,8,242613000000000,125,22.0,-1342.896728515625,0.1499999,0,0.0,0.0,1.57542003E9,,,,0,5.0102999566398125,1,,1.57542003E9
Raw,185531609,1208028213000000000,18,124.97417871381052,-412826,-0.10044715134426951,124.97417871381052,85.55611049042356,2.4705639375679507,0,18,-412826.10044715134,8,242613000000000,125,19.0,1771.0133056640625,0.1499999,0,0.0,0.0,1.57542003E9,,,,0,2.0102999566398125,1,,1.57542003E9
Raw,185531611,1208028213000000000,18,124.97417871381052,-412826,-0.10044715134426951,124.97417871381052,85.55611049042356,2.4705639375679507,0,22,-412826.10044715134,8,242613000000000,125,27.0,-258.28607177734375,0.1499999,0,0.0,0.0,1.57542003E9,,,,0,10.010299956639813,1,,1.57542003E9
Raw,185531612,1208028213000000000,18,124.97417871381052,-412826,-0.10044715134426951,124.97417871381052,85.55611049042356,2.4705639375679507,0,23,-412826.10044715134,10,20000,125,22.0,-489.3609619140625,0.1499999,0,0.0,0.0,1.57542003E9,,,,0,5.0102999566398125,1,,1.57542003E9
Raw,185531613,1208028213000000000,18,124.97417871381052,-412826,-0.10044715134426951,124.97417871381052,85.55611049042356,2.4705639375679507,0,31,-412826.10044715134,8,242613000000000,125,27.0,2553.82763671875,0.1499999,0,0.0,0.0,1.57542003E9,,,,0,10.010299956639813,1,,1.57542003E9
NMEA,$GNVTG,0.00,T,,M,0.000,N,0.000,K,A*23
,1523992995000
NMEA,$GNACCURACY,4.5*17
,1523992995000
NMEA,$GNGGA,192316.000,2207.2111,S,05124.5169,W,1,8,1.14,417.9,M,-2.7,M,,*51
,1523992996000
NMEA,$GPGSA,A,3,22,03,18,31,11,23,01,26,,,,,1.46,1.14,0.92*02
,1523992996000
NMEA,$GLGSA,A,3,,,,,,,,,,,,,1.46,1.14,0.92*12
,1523992996000
Fix,gps,-22.120185,-51.408615,417.900000,0.000000,4.500000,1523992996000
NMEA,$GPGSV,4,1,13,01,77,292,25.7,18,61,002,17.8,22,58,151,24.2,11,51,317,17.6*79
,1523992996000
NMEA,$GPGSV,4,2,13,23,49,251,18.5,03,47,193,17.6,31,28,134,24.8,09,19,282,*67
,1523992996000
NMEA,$GPGSV,4,3,13,26,12,077,15.9,14,10,134,,16,09,050,13.9,08,08,348,*7B
,1523992996000
NMEA,$GPGSV,4,4,13,17,06,241,*4C
,1523992996000
NMEA,$GLGSV,3,1,9,79,45,074,,84,41,259,,69,34,199,,83,31,333,*56
,1523992996000
NMEA,$GLGSV,3,2,9,78,28,126,,68,27,139,,80,17,007,,85,09,213,*50
,1523992996000
NMEA,$GLGSV,3,3,9,70,05,249,*61
,1523992996000
NMEA,$GNRMC,192316.000,A,2207.2111,S,05124.5169,W,0.000,0.00,170418,,,A*47
,1523992996000
NMEA,$GNVTG,0.00,T,,M,0.000,N,0.000,K,A*23
,1523992996000
NMEA,$GNACCURACY,4.5*17
,1523992996000
Raw,185532623,1208028214000000000,18,123.95217550190694,-412739,-0.42116688151145354,123.95217550190694,85.80531564693418,2.6231876768789104,0,3,-412739.4211668815,8,242614000000000,124,20.0,-1342.6787109375,0.1499999,0,0.0,0.0,1.57542003E9,,,,0,3.0102999566398125,1,,1.57542003E9
Raw,185532625,1208028214000000000,18,123.95217550190694,-412739,-0.42116688151145354,123.95217550190694,85.80531564693418,2.6231876768789104,0,18,-412739.4211668815,8,242614000000000,124,21.0,1773.1402587890625,0.1499999,0,0.0,0.0,1.57542003E9,,,,0,4.0102999566398125,1,,1.57542003E9
Raw,185532626,1208028214000000000,18,123.95217550190694,-412739,-0.42116688151145354,123.95217550190694,85.80531564693418,2.6231876768789104,0,22,-412739.4211668815,8,242614000000000,124,27.0,-256.239501953125,0.1499999,0,0.0,0.0,1.57542003E9,,,,0,10.010299956639813,1,,1.57542003E9
Raw,185532628,1208028214000000000,18,123.95217550190694,-412739,-0.42116688151145354,123.95217550190694,85.80531564693418,2.6231876768789104,0,23,-412739.4211668815,10,20000,124,21.0,-493.1070556640625,0.1499999,0,0.0,0.0,1.57542003E9,,,,0,4.0102999566398125,1,,1.57542003E9
Raw,185532629,1208028214000000000,18,123.95217550190694,-412739,-0.42116688151145354,123.95217550190694,85.80531564693418,2.6231876768789104,0,31,-412739.4211668815,8,242614000000000,124,28.0,2552.756591796875,0.1499999,0,0.0,0.0,1.57542003E9,,,,0,11.010299956639813,1,,1.57542003E9
NMEA,$GNGGA,192317.000,2207.2112,S,05124.5170,W,1,9,1.03,418.0,M,-2.7,M,,*5A
,1523992997000
NMEA,$GPGSA,A,3,22,03,18,31,11,23,01,26,08,,,,1.33,1.03,0.84*09
,1523992997000
NMEA,$GLGSA,A,3,,,,,,,,,,,,,1.33,1.03,0.84*11
,1523992997000
NMEA,$GPGSV,4,1,13,01,77,292,25.0,18,61,002,20.3,22,58,151,23.3,11,51,317,18.9*77
,1523992997000
NMEA,$GPGSV,4,2,13,23,49,251,18.2,03,47,193,17.6,31,28,134,24.9,09,19,282,*61
,1523992997000
NMEA,$GPGSV,4,3,13,26,12,077,15.1,14,10,134,,16,09,050,13.9,08,08,348,13.1*6E
,1523992997000
NMEA,$GPGSV,4,4,13,17,06,241,*4C
,1523992997000
NMEA,$GLGSV,3,1,9,79,45,074,,84,41,259,,69,34,199,,83,31,333,*56
,1523992997000
NMEA,$GLGSV,3,2,9,78,28,126,,68,27,139,,80,17,007,,85,09,213,*50
,1523992997000
NMEA,$GLGSV,3,3,9,70,05,249,*61
,1523992997000
NMEA,$GNRMC,192317.000,A,2207.2112,S,05124.5170,W,0.000,0.00,170418,,,A*4D
,1523992997000
NMEA,$GNVTG,0.00,T,,M,0.000,N,0.000,K,A*23
,1523992997000
Fix,gps,-22.120187,-51.408617,418.000000,0.000000,4.500000,1523992997000
Raw,185533612,1208028215000000000,18,107.06313915732304,-412653,-0.3418336759204976,107.06313915732304,85.68939034285583,2.627591731921615,0,3,-412653.3418336759,8,242615000000000,107,18.0,-1343.03662109375,0.1499999,0,0.0,0.0,1.57542003E9,,,,0,1.0102999566398125,1,,1.57542003E9
Raw,185533614,1208028215000000000,18,107.06313915732304,-412653,-0.3418336759204976,107.06313915732304,85.68939034285583,2.627591731921615,0,16,-412653.3418336759,10,20000,107,19.0,-1567.701171875,0.1499999,0,0.0,0.0,1.57542003E9,,,,0,2.0102999566398125,1,,1.57542003E9
Raw,185533615,1208028215000000000,18,107.06313915732304,-412653,-0.3418336759204976,107.06313915732304,85.68939034285583,2.627591731921615,0,18,-412653.3418336759,8,242615000000000,107,24.0,1777.1556396484375,0.1499999,0,0.0,0.0,1.57542003E9,,,,0,7.0102999566398125,1,,1.57542003E9
Raw,185533616,1208028215000000000,18,107.06313915732304,-412653,-0.3418336759204976,107.06313915732304,85.68939034285583,2.627591731921615,0,22,-412653.3418336759,8,242615000000000,107,25.0,-255.20277404785156,0.1499999,0,0.0,0.0,1.57542003E9,,,,0,8.010299956639813,1,,1.57542003E9
Raw,185533617,1208028215000000000,18,107.06313915732304,-412653,-0.3418336759204976,107.06313915732304,85.68939034285583,2.627591731921615,0,23,-412653.3418336759,10,20000,107,21.0,-492.6575927734375,0.1499999,0,0.0,0.0,1.57542003E9,,,,0,4.0102999566398125,1,,1.57542003E9
Raw,185533619,1208028215000000000,18,107.06313915732304,-412653,-0.3418336759204976,107.06313915732304,85.68939034285583,2.627591731921615,0,26,-412653.3418336759,10,242615000000000,107,19.0,-1192.145263671875,0.1499999,0,0.0,0.0,1.57542003E9,,,,0,2.0102999566398125,1,,1.57542003E9
