# 
# Header Description:
# 
# Version: v2.0.0.1 Platform: 8.0.0 Manufacturer: motorola com.rogeriocarmo.gnss_mobilecalculator.Model: moto x4
# 
# Raw,ElapsedRealtimeMillis,TimeNanos,LeapSecond,TimeUncertaintyNanos,FullBiasNanos,BiasNanos,BiasUncertaintyNanos,DriftNanosPerSecond,DriftUncertaintyNanosPerSecond,HardwareClockDiscontinuityCount,Svid,TimeOffsetNanos,State,ReceivedSvTimeNanos,ReceivedSvTimeUncertaintyNanos,Cn0DbHz,PseudorangeRateMetersPerSecond,PseudorangeRateUncertaintyMetersPerSecond,AccumulatedDeltaRangeState,AccumulatedDeltaRangeMeters,AccumulatedDeltaRangeUncertaintyMeters,CarrierFrequencyHz,CarrierCycles,CarrierPhase,CarrierPhaseUncertainty,MultipathIndicator,SnrInDb,ConstellationType,AgcDb,CarrierFrequencyHz
# 
# Fix,Provider,Latitude,Longitude,Altitude,Speed,Accuracy,(UTC)TimeInMs
# 
# Nav,Svid,Type,Status,MessageId,Sub-messageId,Data(Bytes)
# 
Fix,gps,-22.122576,-51.407802,443.414185,0.000000,10.720000,1541019949000
Raw,1707515044,3373681000000,,,-1225051792766172672,0.0,76.36917871423066,7.380358823021446,11.625921963145366,9,10,0.0,207,348373262522,1618,13.1,774.54296875,7.681000232696533,0,0.0,0.0,,,,,0,,3,,
Raw,1707515044,3373681000000,,,-1225051792766172672,0.0,76.36917871423066,7.380358823021446,11.625921963145366,9,6,0.0,207,348375284294,46,20.0,-219.97897338867188,1.1390000581741333,0,0.0,0.0,,,,,0,,3,,
Raw,1707515045,3373681000000,,,-1225051792766172672,0.0,76.36917871423066,7.380358823021446,11.625921963145366,9,22,0.0,207,348374152194,70,18.0,-92.7957534790039,2.7975001335144043,0,0.0,0.0,,,,,0,,3,,
Raw,1707515046,3373681000000,,,-1225051792766172672,0.0,76.36917871423066,7.380358823021446,11.625921963145366,9,11,0.0,207,348380736944,70,18.2,237.27020263671875,2.7764999866485596,0,0.0,0.0,,,,,0,,3,,
Raw,1707515046,3373681000000,,,-1225051792766172672,0.0,76.36917871423066,7.380358823021446,11.625921963145366,9,21,0.0,207,348375231036,17,28.2,220.60015869140625,0.2558000087738037,0,0.0,0.0,,,,,0,,3,,
Raw,1707515047,3373681000000,,,-1225051792766172672,0.0,76.36917871423066,7.380358823021446,11.625921963145366,9,7,0.0,207,348372184406,17,28.1,-652.3447265625,0.25130000710487366,0,0.0,0.0,,,,,0,,3,,
Raw,1707515047,3373681000000,,,-1225051792766172672,0.0,76.36917871423066,7.380358823021446,11.625921963145366,9,5,0.0,15,335166368707945,14,30.5,428.3961181640625,0.037800002843141556,0,0.0,0.0,,,,,0,,1,,
Raw,1707515048,3373681000000,,,-1225051792766172672,0.0,76.36917871423066,7.380358823021446,11.625921963145366,9,10,0.0,15,335166362888095,70,17.0,-693.4491577148438,1.0794999599456787,0,0.0,0.0,,,,,0,,1,,
Raw,1707515049,3373681000000,,,-1225051792766172672,0.0,76.36917871423066,7.380358823021446,11.625921963145366,9,12,0.0,15,335166371405485,24,25.0,567.3193969726562,0.3982999920845032,0,0.0,0.0,,,,,0,,1,,
Raw,1707515049,3373681000000,,,-1225051792766172672,0.0,76.36917871423066,7.380358823021446,11.625921963145366,9,15,0.0,15,335166363686338,35,22.4,-250.28375244140625,0.6710000038146973,0,0.0,0.0,,,,,0,,1,,
Raw,1707515050,3373681000000,,,-1225051792766172672,0.0,76.36917871423066,7.380358823021446,11.625921963145366,9,20,0.0,15,335166372018609,364,13.9,-624.3250122070312,11.124500274658203,0,0.0,0.0,,,,,0,,1,,
Raw,1707515051,3373681000000,,,-1225051792766172672,0.0,76.36917871423066,7.380358823021446,11.625921963145366,9,21,0.0,15,335166376628129,35,22.5,-259.2180480957031,0.6904999613761902,0,0.0,0.0,,,,,0,,1,,
Raw,1707515051,3373681000000,,,-1225051792766172672,0.0,76.36917871423066,7.380358823021446,11.625921963145366,9,25,0.0,15,335166378269932,24,25.2,239.45924377441406,0.423799991607666,0,0.0,0.0,,,,,0,,1,,
Raw,1707515052,3373681000000,,,-1225051792766172672,0.0,76.36917871423066,7.380358823021446,11.625921963145366,9,29,0.0,15,335166375588848,12,32.6,-24.204242706298828,0.046400003135204315,0,0.0,0.0,,,,,0,,1,,
Raw,1707515053,3373681000000,,,-1225051792766172672,0.0,76.36917871423066,7.380358823021446,11.625921963145366,9,27,0.0,7183,335166363252316,53,19.0,512.0707397460938,0.8299999833106995,0,0.0,0.0,,,,,0,,6,,
Fix,gps,-22.122576,-51.407802,443.414673,0.000000,10.720000,1541019950000
Raw,1707516029,3374681000000,,,-1225051792766172672,0.0,75.22862870246172,4.596938378320928,14.021704843292106,9,10,0.0,207,349373259898,1439,14.1,774.6649169921875,8.31100082397461,0,0.0,0.0,,,,,0,,3,,
Raw,1707516030,3374681000000,,,-1225051792766172672,0.0,75.22862870246172,4.596938378320928,14.021704843292106,9,6,0.0,207,349375285234,46,20.5,-219.93212890625,1.1390000581741333,0,0.0,0.0,,,,,0,,3,,
Raw,1707516031,3374681000000,,,-1225051792766172672,0.0,75.22862870246172,4.596938378320928,14.021704843292106,9,22,0.0,207,349374152504,90,18.0,-92.7957534790039,4.297500133514404,0,0.0,0.0,,,,,0,,3,,
Raw,1707516031,3374681000000,,,-1225051792766172672,0.0,75.22862870246172,4.596938378320928,14.021704843292106,9,11,0.0,207,349380736387,73,17.2,236.4093780517578,2.11650013923645,0,0.0,0.0,,,,,0,,3,,
Raw,1707516032,3374681000000,,,-1225051792766172672,0.0,75.22862870246172,4.596938378320928,14.021704843292106,9,21,0.0,207,349375230304,19,27.7,220.94320678710938,0.2637999951839447,0,0.0,0.0,,,,,0,,3,,
Raw,1707516033,3374681000000,,,-1225051792766172672,0.0,75.22862870246172,4.596938378320928,14.021704843292106,9,7,0.0,207,349372186584,17,28.0,-652.1218872070312,0.25130000710487366,0,0.0,0.0,,,,,0,,3,,
Raw,1707516034,3374681000000,,,-1225051792766172672,0.0,75.22862870246172,4.596938378320928,14.021704843292106,9,5,0.0,15,335167368706534,14,30.9,428.8624572753906,0.037800002843141556,0,0.0,0.0,,,,,0,,1,,
Raw,1707516034,3374681000000,,,-1225051792766172672,0.0,75.22862870246172,4.596938378320928,14.021704843292106,9,10,0.0,15,335167362890275,70,17.9,-694.2484130859375,0.999500036239624,0,0.0,0.0,,,,,0,,1,,
Raw,1707516035,3374681000000,,,-1225051792766172672,0.0,75.22862870246172,4.596938378320928,14.021704843292106,9,12,0.0,15,335167371403602,31,23.6,568.1597900390625,0.6330000162124634,0,0.0,0.0,,,,,0,,1,,
Raw,1707516036,3374681000000,,,-1225051792766172672,0.0,75.22862870246172,4.596938378320928,14.021704843292106,9,15,0.0,15,335167363687201,24,25.3,-250.90213012695312,0.3862999975681305,0,0.0,0.0,,,,,0,,1,,
Raw,1707516037,3374681000000,,,-1225051792766172672,0.0,75.22862870246172,4.596938378320928,14.021704843292106,9,20,0.0,15,335167372020577,152,13.2,-623.2593383789062,4.494500160217285,0,0.0,0.0,,,,,0,,1,,
Raw,1707516038,3374681000000,,,-1225051792766172672,0.0,75.22862870246172,4.596938378320928,14.021704843292106,9,21,0.0,15,335167376629055,31,23.7,-259.1990051269531,0.640500009059906,0,0.0,0.0,,,,,0,,1,,
Raw,1707516038,3374681000000,,,-1225051792766172672,0.0,75.22862870246172,4.596938378320928,14.021704843292106,9,25,0.0,15,335167378269123,19,27.5,239.9337615966797,0.06830000132322311,0,0.0,0.0,,,,,0,,1,,
Raw,1707516039,3374681000000,,,-1225051792766172672,0.0,75.22862870246172,4.596938378320928,14.021704843292106,9,29,0.0,15,335167375588916,10,34.4,-23.74748992919922,0.044600002467632294,0,0.0,0.0,,,,,0,,1,,
Raw,1707516040,3374681000000,,,-1225051792766172672,0.0,75.22862870246172,4.596938378320928,14.021704843292106,9,31,0.0,15,335167370442069,651,17.9,47.20234680175781,2.0315001010894775,0,0.0,0.0,,,,,0,,1,,
Raw,1707516040,3374681000000,,,-1225051792766172672,0.0,75.22862870246172,4.596938378320928,14.021704843292106,9,27,0.0,7183,335167363250641,35,22.1,510.8528747558594,0.6600000262260437,0,0.0,0.0,,,,,0,,6,,
Fix,gps,-22.122576,-51.407802,443.419189,0.000000,10.720000,1541019951000
Raw,1707517026,3375681000000,,,-1225051792766172672,0.0,68.26865865150467,5.514140548380336,11.925307839547566,9,10,0.0,207,350373257304,1465,14.1,774.6179809570312,9.06100082397461,0,0.0,0.0,,,,,0,,3,,
Raw,1707517027,3375681000000,,,-1225051792766172672,0.0,68.26865865150467,5.514140548380336,11.925307839547566,9,6,0.0,207,350375286086,31,23.2,-220.34442138671875,0.9489999413490295,0,0.0,0.0,,,,,0,,3,,
Raw,1707517028,3375681000000,,,-1225051792766172672,0.0,68.26865865150467,5.514140548380336,11.925307839547566,9,22,0.0,207,350374152606,103,15.7,-94.0883560180664,3.077500104904175,0,0.0,0.0,,,,,0,,3,,
Raw,1707517028,3375681000000,,,-1225051792766172672,0.0,68.26865865150467,5.514140548380336,11.925307839547566,9,11,0.0,207,350380735281,35,22.8,237.09243774414062,0.9864999651908875,0,0.0,0.0,,,,,0,,3,,
Raw,1707517029,3375681000000,,,-1225051792766172672,0.0,68.26865865150467,5.514140548380336,11.925307839547566,9,21,0.0,207,350375229587,19,27.1,221.27099609375,0.2637999951839447,0,0.0,0.0,,,,,0,,3,,
Raw,1707517030,3375681000000,,,-1225051792766172672,0.0,68.26865865150467,5.514140548380336,11.925307839547566,9,7,0.0,207,350372188769,24,25.2,-651.653076171875,0.5997999906539917,0,0.0,0.0,,,,,0,,3,,
Raw,1707517031,3375681000000,,,-1225051792766172672,0.0,68.26865865150467,5.514140548380336,11.925307839547566,9,5,0.0,15,335168368705084,21,26.3,429.40985107421875,0.12319999933242798,0,0.0,0.0,,,,,0,,1,,
Raw,1707517031,3375681000000,,,-1225051792766172672,0.0,68.26865865150467,5.514140548380336,11.925307839547566,9,10,0.0,15,335168362892476,46,20.7,-694.3150024414062,0.7894999980926514,0,0.0,0.0,,,,,0,,1,,
Raw,1707517032,3375681000000,,,-1225051792766172672,0.0,68.26865865150467,5.514140548380336,11.925307839547566,9,12,0.0,15,335168371401691,24,25.6,568.1575317382812,0.3982999920845032,0,0.0,0.0,,,,,0,,1,,
Raw,1707517033,3375681000000,,,-1225051792766172672,0.0,68.26865865150467,5.514140548380336,11.925307839547566,9,15,0.0,15,335168363688080,24,25.8,-250.554443359375,0.3862999975681305,0,0.0,0.0,,,,,0,,1,,
Raw,1707517034,3375681000000,,,-1225051792766172672,0.0,68.26865865150467,5.514140548380336,11.925307839547566,9,20,0.0,15,335168372022656,182,13.2,-623.2593383789062,5.994500160217285,0,0.0,0.0,,,,,0,,1,,
Raw,1707517034,3375681000000,,,-1225051792766172672,0.0,68.26865865150467,5.514140548380336,11.925307839547566,9,21,0.0,15,335168376629848,27,24.6,-258.7613525390625,0.6004999876022339,0,0.0,0.0,,,,,0,,1,,
Raw,1707517035,3375681000000,,,-1225051792766172672,0.0,68.26865865150467,5.514140548380336,11.925307839547566,9,25,0.0,15,335168378268350,17,28.2,240.4719696044922,0.06030000001192093,0,0.0,0.0,,,,,0,,1,,
Raw,1707517036,3375681000000,,,-1225051792766172672,0.0,68.26865865150467,5.514140548380336,11.925307839547566,9,29,0.0,15,335168375588995,12,32.9,-23.379562377929688,0.046400003135204315,0,0.0,0.0,,,,,0,,1,,
Raw,1707517037,3375681000000,,,-1225051792766172672,0.0,68.26865865150467,5.514140548380336,11.925307839547566,9,31,0.0,15,335168370441891,497,20.2,47.77322769165039,2.631500005722046,0,0.0,0.0,,,,,0,,1,,
Raw,1707517037,3375681000000,,,-1225051792766172672,0.0,68.26865865150467,5.514140548380336,11.925307839547566,9,27,0.0,7183,335168363248932,40,21.7,511.43328857421875,0.7099999785423279,0,0.0,0.0,,,,,0,,6,,
Fix,gps,-22.122576,-51.407802,443.424438,0.000000,10.720000,1541019952000
Raw,1707518034,3376681000000,,,-1225051792766172672,0.0,62.77854845393449,6.48142102533543,12.148012141073215,9,10,0.0,207,351373254674,1317,15.0,774.49609375,9.691000938415527,0,0.0,0.0,,,,,0,,3,,
Raw,1707518036,3376681000000,,,-1225051792766172672,0.0,62.77854845393449,6.48142102533543,12.148012141073215,9,6,0.0,207,351375286769,35,22.8,-219.2200164794922,1.0089999437332153,0,0.0,0.0,,,,,0,,3,,
Raw,1707518036,3376681000000,,,-1225051792766172672,0.0,62.77854845393449,6.48142102533543,12.148012141073215,9,22,0.0,207,351374152920,123,15.7,-94.0883560180664,4.577500343322754,0,0.0,0.0,,,,,0,,3,,
Raw,1707518037,3376681000000,,,-1225051792766172672,0.0,62.77854845393449,6.48142102533543,12.148012141073215,9,11,0.0,207,351380734645,31,23.2,236.70880126953125,0.9264999628067017,0,0.0,0.0,,,,,0,,3,,
Raw,1707518038,3376681000000,,,-1225051792766172672,0.0,62.77854845393449,6.48142102533543,12.148012141073215,9,21,0.0,207,351375228794,21,26.2,221.30718994140625,0.3337000012397766,0,0.0,0.0,,,,,0,,3,,
Raw,1707518039,3376681000000,,,-1225051792766172672,0.0,62.77854845393449,6.48142102533543,12.148012141073215,9,7,0.0,207,351372190844,27,24.7,-651.25146484375,0.8844999670982361,0,0.0,0.0,,,,,0,,3,,
Raw,1707518040,3376681000000,,,-1225051792766172672,0.0,62.77854845393449,6.48142102533543,12.148012141073215,9,5,0.0,15,335169368703648,16,29.1,429.38494873046875,0.038700003176927567,0,0.0,0.0,,,,,0,,1,,
Raw,1707518040,3376681000000,,,-1225051792766172672,0.0,62.77854845393449,6.48142102533543,12.148012141073215,9,10,0.0,15,335169362894860,53,19.9,-693.6394653320312,0.8495000004768372,0,0.0,0.0,,,,,0,,1,,
Raw,1707518041,3376681000000,,,-1225051792766172672,0.0,62.77854845393449,6.48142102533543,12.148012141073215,9,12,0.0,15,335169371399799,24,25.8,568.1363525390625,0.3982999920845032,0,0.0,0.0,,,,,0,,1,,
Raw,1707518042,3376681000000,,,-1225051792766172672,0.0,62.77854845393449,6.48142102533543,12.148012141073215,9,15,0.0,15,335169363688869,27,24.2,-250.8070526123047,0.6210000514984131,0,0.0,0.0,,,,,0,,1,,
Raw,1707518042,3376681000000,,,-1225051792766172672,0.0,62.77854845393449,6.48142102533543,12.148012141073215,9,20,0.0,15,335169372024735,222,13.2,-623.2593383789062,7.494500160217285,0,0.0,0.0,,,,,0,,1,,
Raw,1707518043,3376681000000,,,-1225051792766172672,0.0,62.77854845393449,6.48142102533543,12.148012141073215,9,21,0.0,15,335169376630697,27,24.0,-258.5234680175781,0.640500009059906,0,0.0,0.0,,,,,0,,1,,
Raw,1707518044,3376681000000,,,-1225051792766172672,0.0,62.77854845393449,6.48142102533543,12.148012141073215,9,25,0.0,15,335169378267500,17,28.2,240.58766174316406,0.07530000060796738,0,0.0,0.0,,,,,0,,1,,
Raw,1707518044,3376681000000,,,-1225051792766172672,0.0,62.77854845393449,6.48142102533543,12.148012141073215,9,29,0.0,15,335169375589063,11,33.1,-23.322513580322266,0.04540000110864639,0,0.0,0.0,,,,,0,,1,,
Raw,1707518045,3376681000000,,,-1225051792766172672,0.0,62.77854845393449,6.48142102533543,12.148012141073215,9,31,0.0,15,335169370441713,59,21.0,47.849342346191406,3.321500062942505,0,0.0,0.0,,,,,0,,1,,
Raw,1707518046,3376681000000,,,-1225051792766172672,0.0,62.77854845393449,6.48142102533543,12.148012141073215,9,27,0.0,7183,335169363247254,40,21.1,511.2905578613281,0.7099999785423279,0,0.0,0.0,,,,,0,,6,,
Fix,gps,-22.122576,-51.407802,443.425659,0.000000,10.720000,1541019953000
Raw,1707519020,3377681000000,,,-1225051792766172672,0.0,61.01665348978713,6.6658227128040615,12.57061453466045,9,10,0.0,207,352373252043,315,14.3,774.6649169921875,10.56100082397461,0,0.0,0.0,,,,,0,,3,,
Raw,1707519021,3377681000000,,,-1225051792766172672,0.0,61.01665348978713,6.6658227128040615,12.57061453466045,9,6,0.0,207,352375287508,31,23.4,-220.01646423339844,0.9489999413490295,0,0.0,0.0,,,,,0,,3,,
Raw,1707519021,3377681000000,,,-1225051792766172672,0.0,61.01665348978713,6.6658227128040615,12.57061453466045,9,22,0.0,207,352374153233,154,15.7,-94.0883560180664,6.077500343322754,0,0.0,0.0,,,,,0,,3,,
Raw,1707519022,3377681000000,,,-1225051792766172672,0.0,61.01665348978713,6.6658227128040615,12.57061453466045,9,11,0.0,207,352380733766,46,20.9,237.09243774414062,1.1165000200271606,0,0.0,0.0,,,,,0,,3,,
Raw,1707519022,3377681000000,,,-1225051792766172672,0.0,61.01665348978713,6.6658227128040615,12.57061453466045,9,21,0.0,207,352375228142,21,26.8,220.89146423339844,0.3337000012397766,0,0.0,0.0,,,,,0,,3,,
Raw,1707519023,3377681000000,,,-1225051792766172672,0.0,61.01665348978713,6.6658227128040615,12.57061453466045,9,7,0.0,207,352372193137,35,22.5,-651.4756469726562,1.004499912261963,0,0.0,0.0,,,,,0,,3,,
Raw,1707519024,3377681000000,,,-1225051792766172672,0.0,61.01665348978713,6.6658227128040615,12.57061453466045,9,5,0.0,15,335170368702214,17,28.6,429.102294921875,0.04529999941587448,0,0.0,0.0,,,,,0,,1,,
Raw,1707519024,3377681000000,,,-1225051792766172672,0.0,61.01665348978713,6.6658227128040615,12.57061453466045,9,10,0.0,15,335170362897092,46,20.5,-694.1912841796875,0.7894999980926514,0,0.0,0.0,,,,,0,,1,,
Raw,1707519025,3377681000000,,,-1225051792766172672,0.0,61.01665348978713,6.6658227128040615,12.57061453466045,9,12,0.0,15,335170371397874,31,23.8,568.01708984375,0.6330000162124634,0,0.0,0.0,,,,,0,,1,,
Raw,1707519025,3377681000000,,,-1225051792766172672,0.0,61.01665348978713,6.6658227128040615,12.57061453466045,9,15,0.0,15,335170363689708,27,24.3,-250.98785400390625,0.581000030040741,0,0.0,0.0,,,,,0,,1,,
Raw,1707519026,3377681000000,,,-1225051792766172672,0.0,61.01665348978713,6.6658227128040615,12.57061453466045,9,20,0.0,15,335170372026814,272,13.2,-623.2593383789062,8.994500160217285,0,0.0,0.0,,,,,0,,1,,
Raw,1707519026,3377681000000,,,-1225051792766172672,0.0,61.01665348978713,6.6658227128040615,12.57061453466045,9,21,0.0,15,335170376631596,35,22.0,-258.5520324707031,0.750499963760376,0,0.0,0.0,,,,,0,,1,,
Raw,1707519028,3377681000000,,,-1225051792766172672,0.0,61.01665348978713,6.6658227128040615,12.57061453466045,9,25,0.0,15,335170378266724,21,26.8,240.27963256835938,0.15320000052452087,0,0.0,0.0,,,,,0,,1,,
Raw,1707519028,3377681000000,,,-1225051792766172672,0.0,61.01665348978713,6.6658227128040615,12.57061453466045,9,29,0.0,15,335170375589161,12,32.7,-23.632408142089844,0.046400003135204315,0,0.0,0.0,,,,,0,,1,,
Raw,1707519029,3377681000000,,,-1225051792766172672,0.0,61.01665348978713,6.6658227128040615,12.57061453466045,9,31,0.0,15,335170370441553,83,21.0,47.849342346191406,4.821500301361084,0,0.0,0.0,,,,,0,,1,,
Raw,1707519030,3377681000000,,,-1225051792766172672,0.0,61.01665348978713,6.6658227128040615,12.57061453466045,9,27,0.0,7183,335170363245512,46,20.9,511.8233947753906,0.7699999809265137,0,0.0,0.0,,,,,0,,6,,
Fix,gps,-22.122576,-51.407802,443.431763,0.000000,9.648001,1541019954000
Raw,1707520031,3378681000000,,,-1225051792766172672,0.0,61.126840591896325,5.6801836229406,14.577593573928167,9,10,0.0,207,353373249459,385,14.3,774.6649169921875,12.06100082397461,0,0.0,0.0,,,,,0,,3,,
Raw,1707520031,3378681000000,,,-1225051792766172672,0.0,61.126840591896325,5.6801836229406,14.577593573928167,9,6,0.0,207,353375288422,46,20.6,-219.52923583984375,1.1390000581741333,0,0.0,0.0,,,,,0,,3,,
Raw,1707520032,3378681000000,,,-1225051792766172672,0.0,61.126840591896325,5.6801836229406,14.577593573928167,9,22,0.0,207,353374153547,194,15.7,-94.0883560180664,7.577500343322754,0,0.0,0.0,,,,,0,,3,,
Raw,1707520033,3378681000000,,,-1225051792766172672,0.0,61.126840591896325,5.6801836229406,14.577593573928167,9,11,0.0,207,353380732889,31,23.2,237.08306884765625,0.9264999628067017,0,0.0,0.0,,,,,0,,3,,
Raw,1707520033,3378681000000,,,-1225051792766172672,0.0,61.126840591896325,5.6801836229406,14.577593573928167,9,5,0.0,207,353367478299,489,21.5,357.63238525390625,1.6119999885559082,0,0.0,0.0,,,,,0,,3,,
Raw,1707520034,3378681000000,,,-1225051792766172672,0.0,61.126840591896325,5.6801836229406,14.577593573928167,9,21,0.0,207,353375227309,17,28.0,221.0873260498047,0.2558000087738037,0,0.0,0.0,,,,,0,,3,,
Raw,1707520034,3378681000000,,,-1225051792766172672,0.0,61.126840591896325,5.6801836229406,14.577593573928167,9,7,0.0,207,353372195243,24,25.8,-651.7537231445312,0.5997999906539917,0,0.0,0.0,,,,,0,,3,,
Raw,1707520035,3378681000000,,,-1225051792766172672,0.0,61.126840591896325,5.6801836229406,14.577593573928167,9,5,0.0,15,335171368700791,16,29.5,429.3770446777344,0.038700003176927567,0,0.0,0.0,,,,,0,,1,,
Raw,1707520036,3378681000000,,,-1225051792766172672,0.0,61.126840591896325,5.6801836229406,14.577593573928167,9,10,0.0,15,335171362899407,54,20.5,-694.1912841796875,2.2894999980926514,0,0.0,0.0,,,,,0,,1,,
Raw,1707520037,3378681000000,,,-1225051792766172672,0.0,61.126840591896325,5.6801836229406,14.577593573928167,9,12,0.0,15,335171371396053,46,20.5,568.0646362304688,0.8029999732971191,0,0.0,0.0,,,,,0,,1,,
Raw,1707520037,3378681000000,,,-1225051792766172672,0.0,61.126840591896325,5.6801836229406,14.577593573928167,9,15,0.0,15,335171363690598,21,26.4,-250.74136352539062,0.11569999903440475,0,0.0,0.0,,,,,0,,1,,
Raw,1707520038,3378681000000,,,-1225051792766172672,0.0,61.126840591896325,5.6801836229406,14.577593573928167,9,20,0.0,15,335171372028893,333,13.2,-623.2593383789062,10.494500160217285,0,0.0,0.0,,,,,0,,1,,
Raw,1707520038,3378681000000,,,-1225051792766172672,0.0,61.126840591896325,5.6801836229406,14.577593573928167,9,21,0.0,15,335171376632463,31,23.3,-258.3522033691406,0.640500009059906,0,0.0,0.0,,,,,0,,1,,
Raw,1707520039,3378681000000,,,-1225051792766172672,0.0,61.126840591896325,5.6801836229406,14.577593573928167,9,25,0.0,15,335171378265940,19,27.9,240.5997772216797,0.06830000132322311,0,0.0,0.0,,,,,0,,1,,
Raw,1707520039,3378681000000,,,-1225051792766172672,0.0,61.126840591896325,5.6801836229406,14.577593573928167,9,29,0.0,15,335171375589234,12,32.7,-23.459457397460938,0.046400003135204315,0,0.0,0.0,,,,,0,,1,,
Raw,1707520040,3378681000000,,,-1225051792766172672,0.0,61.126840591896325,5.6801836229406,14.577593573928167,9,31,0.0,15,335171370441394,118,21.0,47.849342346191406,6.321500301361084,0,0.0,0.0,,,,,0,,1,,
Raw,1707520040,3378681000000,,,-1225051792766172672,0.0,61.126840591896325,5.6801836229406,14.577593573928167,9,27,0.0,7183,335171363243834,46,20.3,512.4418334960938,0.7699999809265137,0,0.0,0.0,,,,,0,,6,,
Fix,gps,-22.122576,-51.407802,443.439636,0.000000,9.648001,1541019955000
Raw,1707521021,3379681000000,,,-1225051792766172672,0.0,54.12047539721243,7.139872883339535,11.493314794171383,9,10,0.0,207,354373246875,465,14.3,774.6649169921875,13.56100082397461,0,0.0,0.0,,,,,0,,3,,
Raw,1707521022,3379681000000,,,-1225051792766172672,0.0,54.12047539721243,7.139872883339535,11.493314794171383,9,6,0.0,207,354375288980,61,18.6,-218.83584594726562,1.2990000247955322,0,0.0,0.0,,,,,0,,3,,
Raw,1707521022,3379681000000,,,-1225051792766172672,0.0,54.12047539721243,7.139872883339535,11.493314794171383,9,22,0.0,207,354374153861,245,15.7,-94.0883560180664,9.077500343322754,0,0.0,0.0,,,,,0,,3,,
Raw,1707521023,3379681000000,,,-1225051792766172672,0.0,54.12047539721243,7.139872883339535,11.493314794171383,9,11,0.0,207,354380732202,53,19.2,238.03746032714844,1.1965000629425049,0,0.0,0.0,,,,,0,,3,,
Raw,1707521024,3379681000000,,,-1225051792766172672,0.0,54.12047539721243,7.139872883339535,11.493314794171383,9,5,0.0,207,354367477132,568,20.6,357.85687255859375,2.432000160217285,0,0.0,0.0,,,,,0,,3,,
Raw,1707521024,3379681000000,,,-1225051792766172672,0.0,54.12047539721243,7.139872883339535,11.493314794171383,9,21,0.0,207,354375226610,16,29.7,221.2326202392578,0.2492000013589859,0,0.0,0.0,,,,,0,,3,,
Raw,1707521025,3379681000000,,,-1225051792766172672,0.0,54.12047539721243,7.139872883339535,11.493314794171383,9,7,0.0,207,354372197371,24,25.4,-651.7073364257812,0.5997999906539917,0,0.0,0.0,,,,,0,,3,,
Raw,1707521025,3379681000000,,,-1225051792766172672,0.0,54.12047539721243,7.139872883339535,11.493314794171383,9,5,0.0,15,335172368699372,16,29.5,429.5906982421875,0.038700003176927567,0,0.0,0.0,,,,,0,,1,,
Raw,1707521026,3379681000000,,,-1225051792766172672,0.0,54.12047539721243,7.139872883339535,11.493314794171383,9,10,0.0,15,335172362901810,96,15.5,-694.4482421875,1.9194999933242798,0,0.0,0.0,,,,,0,,1,,
Raw,1707521026,3379681000000,,,-1225051792766172672,0.0,54.12047539721243,7.139872883339535,11.493314794171383,9,12,0.0,15,335172371394094,31,23.1,568.4452514648438,0.6829999685287476,0,0.0,0.0,,,,,0,,1,,
Raw,1707521027,3379681000000,,,-1225051792766172672,0.0,54.12047539721243,7.139872883339535,11.493314794171383,9,15,0.0,15,335172363691350,24,25.8,-250.82025146484375,0.3862999975681305,0,0.0,0.0,,,,,0,,1,,
Raw,1707521028,3379681000000,,,-1225051792766172672,0.0,54.12047539721243,7.139872883339535,11.493314794171383,9,20,0.0,15,335172372030972,403,13.2,-623.2593383789062,11.994500160217285,0,0.0,0.0,,,,,0,,1,,
Raw,1707521028,3379681000000,,,-1225051792766172672,0.0,54.12047539721243,7.139872883339535,11.493314794171383,9,21,0.0,15,335172376633318,27,24.1,-258.7613525390625,0.640500009059906,0,0.0,0.0,,,,,0,,1,,
Raw,1707521029,3379681000000,,,-1225051792766172672,0.0,54.12047539721243,7.139872883339535,11.493314794171383,9,25,0.0,15,335172378265112,19,27.5,240.90184020996094,0.08330000191926956,0,0.0,0.0,,,,,0,,1,,
Raw,1707521029,3379681000000,,,-1225051792766172672,0.0,54.12047539721243,7.139872883339535,11.493314794171383,9,29,0.0,15,335172375589307,11,33.0,-23.30829429626465,0.04540000110864639,0,0.0,0.0,,,,,0,,1,,
Raw,1707521030,3379681000000,,,-1225051792766172672,0.0,54.12047539721243,7.139872883339535,11.493314794171383,9,31,0.0,15,335172370441234,163,21.0,47.849342346191406,7.821500301361084,0,0.0,0.0,,,,,0,,1,,
Raw,1707521030,3379681000000,,,-1225051792766172672,0.0,54.12047539721243,7.139872883339535,11.493314794171383,9,27,0.0,7183,335172363242077,53,19.6,510.8528747558594,0.8299999833106995,0,0.0,0.0,,,,,0,,6,,
Fix,gps,-22.122576,-51.407801,443.447388,0.000000,9.648001,1541019956000
Raw,1707522027,3380681000000,,,-1225051792766172672,0.0,54.60581087390892,6.525871144332199,12.280336190802885,9,10,0.0,207,355373244291,555,14.3,774.6649169921875,15.06100082397461,0,0.0,0.0,,,,,0,,3,,
Raw,1707522028,3380681000000,,,-1225051792766172672,0.0,54.60581087390892,6.525871144332199,12.280336190802885,9,6,0.0,207,355375289515,61,18.5,-218.03004455566406,1.2990000247955322,0,0.0,0.0,,,,,0,,3,,
Raw,1707522029,3380681000000,,,-1225051792766172672,0.0,54.60581087390892,6.525871144332199,12.280336190802885,9,22,0.0,207,355374154004,123,15.2,-92.80511474609375,4.577500343322754,0,0.0,0.0,,,,,0,,3,,
Raw,1707522030,3380681000000,,,-1225051792766172672,0.0,54.60581087390892,6.525871144332199,12.280336190802885,9,11,0.0,207,355380731348,46,20.5,238.30882263183594,1.1165000200271606,0,0.0,0.0,,,,,0,,3,,
Raw,1707522030,3380681000000,,,-1225051792766172672,0.0,54.60581087390892,6.525871144332199,12.280336190802885,9,5,0.0,207,355367475959,576,20.1,357.6604309082031,3.182000160217285,0,0.0,0.0,,,,,0,,3,,
Raw,1707522031,3380681000000,,,-1225051792766172672,0.0,54.60581087390892,6.525871144332199,12.280336190802885,9,21,0.0,207,355375225849,14,30.5,220.99356079101562,0.2483000010251999,0,0.0,0.0,,,,,0,,3,,
Raw,1707522031,3380681000000,,,-1225051792766172672,0.0,54.60581087390892,6.525871144332199,12.280336190802885,9,7,0.0,207,355372199564,31,23.9,-651.8118896484375,0.9444999694824219,0,0.0,0.0,,,,,0,,3,,
Raw,1707522033,3380681000000,,,-1225051792766172672,0.0,54.60581087390892,6.525871144332199,12.280336190802885,9,5,0.0,15,335173368697988,21,26.6,429.4396057128906,0.12319999933242798,0,0.0,0.0,,,,,0,,1,,
Raw,1707522034,3380681000000,,,-1225051792766172672,0.0,54.60581087390892,6.525871144332199,12.280336190802885,9,10,0.0,15,335173362904126,110,15.5,-694.4482421875,3.4195001125335693,0,0.0,0.0,,,,,0,,1,,
Raw,1707522034,3380681000000,,,-1225051792766172672,0.0,54.60581087390892,6.525871144332199,12.280336190802885,9,12,0.0,15,335173371392175,31,23.0,568.740234375,0.6829999685287476,0,0.0,0.0,,,,,0,,1,,
Raw,1707522035,3380681000000,,,-1225051792766172672,0.0,54.60581087390892,6.525871144332199,12.280336190802885,9,15,0.0,15,335173363692166,21,26.3,-250.90567016601562,0.11569999903440475,0,0.0,0.0,,,,,0,,1,,
Raw,1707522036,3380681000000,,,-1225051792766172672,0.0,54.60581087390892,6.525871144332199,12.280336190802885,9,20,0.0,15,335173372033051,483,13.2,-623.2593383789062,13.494500160217285,0,0.0,0.0,,,,,0,,1,,
Raw,1707522036,3380681000000,,,-1225051792766172672,0.0,54.60581087390892,6.525871144332199,12.280336190802885,9,21,0.0,15,335173376634181,21,26.5,-258.696044921875,0.13520000874996185,0,0.0,0.0,,,,,0,,1,,
Raw,1707522037,3380681000000,,,-1225051792766172672,0.0,54.60581087390892,6.525871144332199,12.280336190802885,9,25,0.0,15,335173378264281,19,27.1,240.91452026367188,0.06830000132322311,0,0.0,0.0,,,,,0,,1,,
Raw,1707522037,3380681000000,,,-1225051792766172672,0.0,54.60581087390892,6.525871144332199,12.280336190802885,9,29,0.0,15,335173375589367,12,32.8,-23.532005310058594,0.046400003135204315,0,0.0,0.0,,,,,0,,1,,
Raw,1707522038,3380681000000,,,-1225051792766172672,0.0,54.60581087390892,6.525871144332199,12.280336190802885,9,31,0.0,15,335173370441074,217,21.0,47.849342346191406,9.321500778198242,0,0.0,0.0,,,,,0,,1,,
Raw,1707522038,3380681000000,,,-1225051792766172672,0.0,54.60581087390892,6.525871144332199,12.280336190802885,9,27,0.0,7183,335173363240348,61,18.7,511.1192626953125,0.8899999856948853,0,0.0,0.0,,,,,0,,6,,
Fix,gps,-22.122576,-51.407801,443.454346,0.000000,9.648001,1541019957000
Raw,1707523017,3381681000000,,,-1225051792766172672,0.0,52.915715059498325,5.446078602519245,10.459891379042082,9,10,0.0,207,356373241707,655,14.3,774.6649169921875,16.56100082397461,0,0.0,0.0,,,,,0,,3,,
Raw,1707523018,3381681000000,,,-1225051792766172672,0.0,52.915715059498325,5.446078602519245,10.459891379042082,9,6,0.0,207,356375290428,61,18.4,-219.47300720214844,1.2990000247955322,0,0.0,0.0,,,,,0,,3,,
Raw,1707523019,3381681000000,,,-1225051792766172672,0.0,52.915715059498325,5.446078602519245,10.459891379042082,9,22,0.0,207,356374154381,53,19.1,-93.43268585205078,1.21750009059906,0,0.0,0.0,,,,,0,,3,,
Raw,1707523020,3381681000000,,,-1225051792766172672,0.0,52.915715059498325,5.446078602519245,10.459891379042082,9,11,0.0,207,356380730693,31,23.0,237.36376953125,0.9264999628067017,0,0.0,0.0,,,,,0,,3,,
Raw,1707523020,3381681000000,,,-1225051792766172672,0.0,52.915715059498325,5.446078602519245,10.459891379042082,9,5,0.0,207,356367474802,672,19.4,357.4920654296875,4.01200008392334,0,0.0,0.0,,,,,0,,3,,
Raw,1707523021,3381681000000,,,-1225051792766172672,0.0,52.915715059498325,5.446078602519245,10.459891379042082,9,21,0.0,207,356375225113,14,30.5,220.44415283203125,0.2483000010251999,0,0.0,0.0,,,,,0,,3,,
Raw,1707523021,3381681000000,,,-1225051792766172672,0.0,52.915715059498325,5.446078602519245,10.459891379042082,9,7,0.0,207,356372201831,27,24.4,-652.5498046875,0.8844999670982361,0,0.0,0.0,,,,,0,,3,,
Raw,1707523022,3381681000000,,,-1225051792766172672,0.0,52.915715059498325,5.446078602519245,10.459891379042082,9,5,0.0,15,335174368696519,16,29.3,429.13214111328125,0.038700003176927567,0,0.0,0.0,,,,,0,,1,,
Raw,1707523023,3381681000000,,,-1225051792766172672,0.0,52.915715059498325,5.446078602519245,10.459891379042082,9,10,0.0,15,335174362906442,134,15.5,-694.4482421875,4.919500350952148,0,0.0,0.0,,,,,0,,1,,
Raw,1707523023,3381681000000,,,-1225051792766172672,0.0,52.915715059498325,5.446078602519245,10.459891379042082,9,12,0.0,15,335174371390319,35,22.0,567.5889282226562,0.7429999709129333,0,0.0,0.0,,,,,0,,1,,
Raw,1707523024,3381681000000,,,-1225051792766172672,0.0,52.915715059498325,5.446078602519245,10.459891379042082,9,15,0.0,15,335174363693079,24,25.1,-251.26219177246094,0.3862999975681305,0,0.0,0.0,,,,,0,,1,,
Raw,1707523024,3381681000000,,,-1225051792766172672,0.0,52.915715059498325,5.446078602519245,10.459891379042082,9,20,0.0,15,335174372035130,573,13.2,-623.2593383789062,14.994501113891602,0,0.0,0.0,,,,,0,,1,,
Raw,1707523025,3381681000000,,,-1225051792766172672,0.0,52.915715059498325,5.446078602519245,10.459891379042082,9,21,0.0,15,335174376635062,31,23.9,-258.6091003417969,0.640500009059906,0,0.0,0.0,,,,,0,,1,,
Raw,1707523025,3381681000000,,,-1225051792766172672,0.0,52.915715059498325,5.446078602519245,10.459891379042082,9,25,0.0,15,335174378263512,19,27.1,240.36058044433594,0.08330000191926956,0,0.0,0.0,,,,,0,,1,,
Raw,1707523026,3381681000000,,,-1225051792766172672,0.0,52.915715059498325,5.446078602519245,10.459891379042082,9,29,0.0,15,335174375589485,12,32.3,-24.042768478393555,0.046400003135204315,0,0.0,0.0,,,,,0,,1,,
Raw,1707523026,3381681000000,,,-1225051792766172672,0.0,52.915715059498325,5.446078602519245,10.459891379042082,9,31,0.0,15,335174370440915,282,21.0,47.849342346191406,10.821500778198242,0,0.0,0.0,,,,,0,,1,,
Raw,1707523027,3381681000000,,,-1225051792766172672,0.0,52.915715059498325,5.446078602519245,10.459891379042082,9,27,0.0,7183,335174363238679,70,17.5,510.3295593261719,0.9599999785423279,0,0.0,0.0,,,,,0,,6,,
Fix,gps,-22.122576,-51.407801,443.469177,0.000000,9.648001,1541019958000
Raw,1707524030,3382681000000,,,-1225051792766172672,0.0,50.52731648902409,4.644884145178328,12.11765635018702,9,10,0.0,207,357373239123,765,14.3,774.6649169921875,18.06100082397461,0,0.0,0.0,,,,,0,,3,,
Raw,1707524031,3382681000000,,,-1225051792766172672,0.0,50.52731648902409,4.644884145178328,12.11765635018702,9,6,0.0,207,357375291160,70,18.4,-219.47300720214844,2.7990000247955322,0,0.0,0.0,,,,,0,,3,,
Raw,1707524032,3382681000000,,,-1225051792766172672,0.0,50.52731648902409,4.644884145178328,12.11765635018702,9,22,0.0,207,357374154646,46,20.7,-93.65748596191406,1.1375000476837158,0,0.0,0.0,,,,,0,,3,,
Raw,1707524033,3382681000000,,,-1225051792766172672,0.0,50.52731648902409,4.644884145178328,12.11765635018702,9,12,0.0,207,357375712292,1940,12.8,-399.0961608886719,10.289000511169434,0,0.0,0.0,,,,,0,,3,,
Raw,1707524034,3382681000000,,,-1225051792766172672,0.0,50.52731648902409,4.644884145178328,12.11765635018702,9,11,0.0,207,357380729791,35,22.0,236.94271850585938,0.9864999651908875,0,0.0,0.0,,,,,0,,3,,
Raw,1707524034,3382681000000,,,-1225051792766172672,0.0,50.52731648902409,4.644884145178328,12.11765635018702,9,5,0.0,207,357367473607,784,18.9,357.4920654296875,4.8420000076293945,0,0.0,0.0,,,,,0,,3,,
Raw,1707524036,3382681000000,,,-1225051792766172672,0.0,50.52731648902409,4.644884145178328,12.11765635018702,9,21,0.0,207,357375224383,16,29.6,220.4597625732422,0.2492000013589859,0,0.0,0.0,,,,,0,,3,,
Raw,1707524036,3382681000000,,,-1225051792766172672,0.0,50.52731648902409,4.644884145178328,12.11765635018702,9,7,0.0,207,357372203861,27,24.3,-652.0828247070312,0.8844999670982361,0,0.0,0.0,,,,,0,,3,,
Raw,1707524037,3382681000000,,,-1225051792766172672,0.0,50.52731648902409,4.644884145178328,12.11765635018702,9,5,0.0,15,335175368695059,14,30.2,429.269287109375,0.037800002843141556,0,0.0,0.0,,,,,0,,1,,
Raw,1707524037,3382681000000,,,-1225051792766172672,0.0,50.52731648902409,4.644884145178328,12.11765635018702,9,10,0.0,15,335175362908759,168,15.5,-694.4482421875,6.419500350952148,0,0.0,0.0,,,,,0,,1,,
Raw,1707524037,3382681000000,,,-1225051792766172672,0.0,50.52731648902409,4.644884145178328,12.11765635018702,9,12,0.0,15,335175371388414,31,23.4,568.38818359375,0.6330000162124634,0,0.0,0.0,,,,,0,,1,,
Raw,1707524038,3382681000000,,,-1225051792766172672,0.0,50.52731648902409,4.644884145178328,12.11765635018702,9,15,0.0,15,335175363693867,21,26.4,-251.30850219726562,0.11569999903440475,0,0.0,0.0,,,,,0,,1,,
Raw,1707524039,3382681000000,,,-1225051792766172672,0.0,50.52731648902409,4.644884145178328,12.11765635018702,9,20,0.0,15,335175372037209,673,13.2,-623.2593383789062,16.4945011138916,0,0.0,0.0,,,,,0,,1,,
Raw,1707524039,3382681000000,,,-1225051792766172672,0.0,50.52731648902409,4.644884145178328,12.11765635018702,9,21,0.0,15,335175376635914,24,25.3,-258.9986877441406,0.42080000042915344,0,0.0,0.0,,,,,0,,1,,
Raw,1707524040,3382681000000,,,-1225051792766172672,0.0,50.52731648902409,4.644884145178328,12.11765635018702,9,25,0.0,15,335175378262698,19,27.9,240.5359649658203,0.08330000191926956,0,0.0,0.0,,,,,0,,1,,
Raw,1707524040,3382681000000,,,-1225051792766172672,0.0,50.52731648902409,4.644884145178328,12.11765635018702,9,29,0.0,15,335175375589541,12,32.6,-23.988208770751953,0.06140000373125076,0,0.0,0.0,,,,,0,,1,,
Raw,1707524041,3382681000000,,,-1225051792766172672,0.0,50.52731648902409,4.644884145178328,12.11765635018702,9,31,0.0,15,335175370440755,356,21.0,47.849342346191406,12.321500778198242,0,0.0,0.0,,,,,0,,1,,
Raw,1707524041,3382681000000,,,-1225051792766172672,0.0,50.52731648902409,4.644884145178328,12.11765635018702,9,27,0.0,7183,335175363236970,46,20.1,510.38665771484375,0.7699999809265137,0,0.0,0.0,,,,,0,,6,,
Fix,gps,-22.122576,-51.407801,443.465454,0.000000,9.648001,1541019959000
Raw,1707525021,3383681000000,,,-1225051792766172672,0.0,49.98099393560551,4.535746845807121,10.256284106768469,9,10,0.0,207,358373236539,885,14.3,774.6649169921875,19.56100082397461,0,0.0,0.0,,,,,0,,3,,
Raw,1707525021,3383681000000,,,-1225051792766172672,0.0,49.98099393560551,4.535746845807121,10.256284106768469,9,6,0.0,207,358375291972,74,17.5,-219.90403747558594,2.139000177383423,0,0.0,0.0,,,,,0,,3,,
Raw,1707525023,3383681000000,,,-1225051792766172672,0.0,49.98099393560551,4.535746845807121,10.256284106768469,9,22,0.0,207,358374154959,55,20.7,-93.65748596191406,2.637500047683716,0,0.0,0.0,,,,,0,,3,,
Raw,1707525024,3383681000000,,,-1225051792766172672,0.0,49.98099393560551,4.535746845807121,10.256284106768469,9,12,0.0,207,358375713628,380,12.8,-399.04937744140625,11.414000511169434,0,0.0,0.0,,,,,0,,3,,
Raw,1707525024,3383681000000,,,-1225051792766172672,0.0,49.98099393560551,4.535746845807121,10.256284106768469,9,11,0.0,207,358380728969,40,21.9,237.16726684570312,1.0464999675750732,0,0.0,0.0,,,,,0,,3,,
Raw,1707525025,3383681000000,,,-1225051792766172672,0.0,49.98099393560551,4.535746845807121,10.256284106768469,9,5,0.0,207,358367472447,799,18.6,357.37982177734375,5.5920000076293945,0,0.0,0.0,,,,,0,,3,,
Raw,1707525025,3383681000000,,,-1225051792766172672,0.0,49.98099393560551,4.535746845807121,10.256284106768469,9,21,0.0,207,358375223674,16,29.9,220.38726806640625,0.2492000013589859,0,0.0,0.0,,,,,0,,3,,
Raw,1707525026,3383681000000,,,-1225051792766172672,0.0,49.98099393560551,4.535746845807121,10.256284106768469,9,7,0.0,207,358372206154,31,23.9,-652.4564208984375,0.9444999694824219,0,0.0,0.0,,,,,0,,3,,
Raw,1707525027,3383681000000,,,-1225051792766172672,0.0,49.98099393560551,4.535746845807121,10.256284106768469,9,5,0.0,15,335176368693650,13,31.2,429.199462890625,0.03720000013709068,0,0.0,0.0,,,,,0,,1,,
Raw,1707525027,3383681000000,,,-1225051792766172672,0.0,49.98099393560551,4.535746845807121,10.256284106768469,9,10,0.0,15,335176362911075,212,15.5,-694.4482421875,7.919500350952148,0,0.0,0.0,,,,,0,,1,,
Raw,1707525028,3383681000000,,,-1225051792766172672,0.0,49.98099393560551,4.535746845807121,10.256284106768469,9,12,0.0,15,335176371386476,27,24.6,567.9505004882812,0.5929999947547913,0,0.0,0.0,,,,,0,,1,,
Raw,1707525029,3383681000000,,,-1225051792766172672,0.0,49.98099393560551,4.535746845807121,10.256284106768469,9,15,0.0,15,335176363694720,21,26.9,-251.56216430664062,0.11569999903440475,0,0.0,0.0,,,,,0,,1,,
Raw,1707525029,3383681000000,,,-1225051792766172672,0.0,49.98099393560551,4.535746845807121,10.256284106768469,9,20,0.0,15,335176372039288,783,13.2,-623.2593383789062,17.9945011138916,0,0.0,0.0,,,,,0,,1,,
Raw,1707525030,3383681000000,,,-1225051792766172672,0.0,49.98099393560551,4.535746845807121,10.256284106768469,9,21,0.0,15,335176376636822,27,24.6,-259.0182189941406,0.6004999876022339,0,0.0,0.0,,,,,0,,1,,
Raw,1707525031,3383681000000,,,-1225051792766172672,0.0,49.98099393560551,4.535746845807121,10.256284106768469,9,25,0.0,15,335176378261873,17,28.3,240.67201232910156,0.07530000060796738,0,0.0,0.0,,,,,0,,1,,
Raw,1707525031,3383681000000,,,-1225051792766172672,0.0,49.98099393560551,4.535746845807121,10.256284106768469,9,26,0.0,15,335176366408526,1055,14.5,-648.1116943359375,6.0355000495910645,0,0.0,0.0,,,,,0,,1,,
Raw,1707525032,3383681000000,,,-1225051792766172672,0.0,49.98099393560551,4.535746845807121,10.256284106768469,9,29,0.0,15,335176375589607,11,33.0,-24.06203842163086,0.04540000110864639,0,0.0,0.0,,,,,0,,1,,
Raw,1707525032,3383681000000,,,-1225051792766172672,0.0,49.98099393560551,4.535746845807121,10.256284106768469,9,31,0.0,15,335176370440596,441,21.0,47.849342346191406,13.821500778198242,0,0.0,0.0,,,,,0,,1,,
Raw,1707525033,3383681000000,,,-1225051792766172672,0.0,49.98099393560551,4.535746845807121,10.256284106768469,9,27,0.0,7183,335176363235231,53,19.0,510.8719177246094,0.8299999833106995,0,0.0,0.0,,,,,0,,6,,
Fix,gps,-22.122576,-51.407801,443.470215,0.000000,9.648001,1541019960000
Raw,1707526016,3384681000000,,,-1225051792766172672,0.0,50.33624984207563,3.3282371053951243,11.388282326203347,9,10,0.0,207,359373233955,1015,14.3,774.6649169921875,21.06100082397461,0,0.0,0.0,,,,,0,,3,,
Raw,1707526016,3384681000000,,,-1225051792766172672,0.0,50.33624984207563,3.3282371053951243,11.388282326203347,9,6,0.0,207,359375292706,88,17.5,-219.90403747558594,3.639000177383423,0,0.0,0.0,,,,,0,,3,,
Raw,1707526018,3384681000000,,,-1225051792766172672,0.0,50.33624984207563,3.3282371053951243,11.388282326203347,9,22,0.0,207,359374155271,74,20.7,-93.65748596191406,4.137500286102295,0,0.0,0.0,,,,,0,,3,,
Raw,1707526019,3384681000000,,,-1225051792766172672,0.0,50.33624984207563,3.3282371053951243,11.388282326203347,9,12,0.0,207,359375714959,455,12.8,-399.04937744140625,12.914000511169434,0,0.0,0.0,,,,,0,,3,,
Raw,1707526019,3384681000000,,,-1225051792766172672,0.0,50.33624984207563,3.3282371053951243,11.388282326203347,9,11,0.0,207,359380728497,61,18.3,238.24330139160156,1.2764999866485596,0,0.0,0.0,,,,,0,,3,,
Raw,1707526020,3384681000000,,,-1225051792766172672,0.0,50.33624984207563,3.3282371053951243,11.388282326203347,9,5,0.0,207,359367471263,817,18.6,357.4453125,6.3420000076293945,0,0.0,0.0,,,,,0,,3,,
Raw,1707526021,3384681000000,,,-1225051792766172672,0.0,50.33624984207563,3.3282371053951243,11.388282326203347,9,21,0.0,207,359375222942,14,30.1,220.5687713623047,0.2483000010251999,0,0.0,0.0,,,,,0,,3,,
Raw,1707526021,3384681000000,,,-1225051792766172672,0.0,50.33624984207563,3.3282371053951243,11.388282326203347,9,7,0.0,207,359372208325,31,23.0,-651.8866577148438,0.9444999694824219,0,0.0,0.0,,,,,0,,3,,
Raw,1707526023,3384681000000,,,-1225051792766172672,0.0,50.33624984207563,3.3282371053951243,11.388282326203347,9,5,0.0,15,335177368692231,12,32.1,429.41265869140625,0.03590000048279762,0,0.0,0.0,,,,,0,,1,,
Raw,1707526024,3384681000000,,,-1225051792766172672,0.0,50.33624984207563,3.3282371053951243,11.388282326203347,9,10,0.0,15,335177362913392,266,15.5,-694.4482421875,9.419500350952148,0,0.0,0.0,,,,,0,,1,,
Raw,1707526024,3384681000000,,,-1225051792766172672,0.0,50.33624984207563,3.3282371053951243,11.388282326203347,9,12,0.0,15,335177371384589,35,22.7,568.1597900390625,0.6829999685287476,0,0.0,0.0,,,,,0,,1,,
Raw,1707526025,3384681000000,,,-1225051792766172672,0.0,50.33624984207563,3.3282371053951243,11.388282326203347,9,15,0.0,15,335177363695528,24,25.6,-251.30455017089844,0.3862999975681305,0,0.0,0.0,,,,,0,,1,,
Raw,1707526026,3384681000000,,,-1225051792766172672,0.0,50.33624984207563,3.3282371053951243,11.388282326203347,9,20,0.0,15,335177372041366,903,13.2,-623.2593383789062,19.4945011138916,0,0.0,0.0,,,,,0,,1,,
Raw,1707526026,3384681000000,,,-1225051792766172672,0.0,50.33624984207563,3.3282371053951243,11.388282326203347,9,21,0.0,15,335177376637650,24,25.2,-258.8711242675781,0.4058000147342682,0,0.0,0.0,,,,,0,,1,,
Raw,1707526027,3384681000000,,,-1225051792766172672,0.0,50.33624984207563,3.3282371053951243,11.388282326203347,9,25,0.0,15,335177378261097,17,28.1,240.85055541992188,0.07530000060796738,0,0.0,0.0,,,,,0,,1,,
Raw,1707526028,3384681000000,,,-1225051792766172672,0.0,50.33624984207563,3.3282371053951243,11.388282326203347,9,26,0.0,15,335177366410705,1074,14.7,-647.7501220703125,6.7855000495910645,0,0.0,0.0,,,,,0,,1,,
Raw,1707526028,3384681000000,,,-1225051792766172672,0.0,50.33624984207563,3.3282371053951243,11.388282326203347,9,29,0.0,15,335177375589713,11,33.9,-23.89975929260254,0.04540000110864639,0,0.0,0.0,,,,,0,,1,,
Raw,1707526029,3384681000000,,,-1225051792766172672,0.0,50.33624984207563,3.3282371053951243,11.388282326203347,9,31,0.0,15,335177370440436,536,21.0,47.849342346191406,15.321500778198242,0,0.0,0.0,,,,,0,,1,,
Raw,1707526029,3384681000000,,,-1225051792766172672,0.0,50.33624984207563,3.3282371053951243,11.388282326203347,9,27,0.0,7183,335177363233547,61,18.0,511.8138732910156,0.8899999856948853,0,0.0,0.0,,,,,0,,6,,
Fix,gps,-22.122576,-51.407801,443.476929,0.000000,9.648001,1541019961000
Raw,1707527024,3385681000000,,,-1225051792766172672,0.0,51.17874752613716,4.269818347518158,11.9640403017831,9,10,0.0,207,360373231371,1155,14.3,774.6649169921875,22.56100082397461,0,0.0,0.0,,,,,0,,3,,
Raw,1707527025,3385681000000,,,-1225051792766172672,0.0,51.17874752613716,4.269818347518158,11.9640403017831,9,6,0.0,207,360375293449,84,16.1,-219.28561401367188,2.2290000915527344,0,0.0,0.0,,,,,0,,3,,
Raw,1707527026,3385681000000,,,-1225051792766172672,0.0,51.17874752613716,4.269818347518158,11.9640403017831,9,22,0.0,207,360374155583,103,20.7,-93.65748596191406,5.637500286102295,0,0.0,0.0,,,,,0,,3,,
Raw,1707527026,3385681000000,,,-1225051792766172672,0.0,51.17874752613716,4.269818347518158,11.9640403017831,9,12,0.0,207,360375716290,540,12.8,-399.04937744140625,14.414000511169434,0,0.0,0.0,,,,,0,,3,,
Raw,1707527027,3385681000000,,,-1225051792766172672,0.0,51.17874752613716,4.269818347518158,11.9640403017831,9,11,0.0,207,360380727398,40,21.2,237.88775634765625,1.0464999675750732,0,0.0,0.0,,,,,0,,3,,
Raw,1707527028,3385681000000,,,-1225051792766172672,0.0,51.17874752613716,4.269818347518158,11.9640403017831,9,5,0.0,207,360367470076,837,18.2,357.4640197753906,7.092000484466553,0,0.0,0.0,,,,,0,,3,,
Raw,1707527028,3385681000000,,,-1225051792766172672,0.0,51.17874752613716,4.269818347518158,11.9640403017831,9,21,0.0,207,360375222186,16,29.8,220.31948852539062,0.2492000013589859,0,0.0,0.0,,,,,0,,3,,
Raw,1707527029,3385681000000,,,-1225051792766172672,0.0,51.17874752613716,4.269818347518158,11.9640403017831,9,7,0.0,207,360372210488,24,25.0,-652.3794555664062,0.5997999906539917,0,0.0,0.0,,,,,0,,3,,
Raw,1707527029,3385681000000,,,-1225051792766172672,0.0,51.17874752613716,4.269818347518158,11.9640403017831,9,5,0.0,15,335178368690796,14,30.3,429.3525085449219,0.037800002843141556,0,0.0,0.0,,,,,0,,1,,
Raw,1707527030,3385681000000,,,-1225051792766172672,0.0,51.17874752613716,4.269818347518158,11.9640403017831,9,10,0.0,15,335178362915708,330,15.5,-694.4482421875,10.919500350952148,0,0.0,0.0,,,,,0,,1,,
Raw,1707527030,3385681000000,,,-1225051792766172672,0.0,51.17874752613716,4.269818347518158,11.9640403017831,9,12,0.0,15,335178371382680,80,16.3,568.9590454101562,1.0929999351501465,0,0.0,0.0,,,,,0,,1,,
Raw,1707527031,3385681000000,,,-1225051792766172672,0.0,51.17874752613716,4.269818347518158,11.9640403017831,9,15,0.0,15,335178363696381,21,26.8,-251.55299377441406,0.11569999903440475,0,0.0,0.0,,,,,0,,1,,
Raw,1707527032,3385681000000,,,-1225051792766172672,0.0,51.17874752613716,4.269818347518158,11.9640403017831,9,20,0.0,15,335178372043445,1034,13.2,-623.2593383789062,20.9945011138916,0,0.0,0.0,,,,,0,,1,,
Raw,1707527032,3385681000000,,,-1225051792766172672,0.0,51.17874752613716,4.269818347518158,11.9640403017831,9,21,0.0,15,335178376638567,35,22.0,-258.7518310546875,0.765500009059906,0,0.0,0.0,,,,,0,,1,,
Raw,1707527033,3385681000000,,,-1225051792766172672,0.0,51.17874752613716,4.269818347518158,11.9640403017831,9,25,0.0,15,335178378260308,17,28.7,240.83811950683594,0.07530000060796738,0,0.0,0.0,,,,,0,,1,,
Raw,1707527033,3385681000000,,,-1225051792766172672,0.0,51.17874752613716,4.269818347518158,11.9640403017831,9,26,0.0,15,335178366412873,1096,14.6,-647.7311401367188,7.535500526428223,0,0.0,0.0,,,,,0,,1,,
Raw,1707527034,3385681000000,,,-1225051792766172672,0.0,51.17874752613716,4.269818347518158,11.9640403017831,9,29,0.0,15,335178375589803,13,31.8,-24.040504455566406,0.047700002789497375,0,0.0,0.0,,,,,0,,1,,
Raw,1707527034,3385681000000,,,-1225051792766172672,0.0,51.17874752613716,4.269818347518158,11.9640403017831,9,31,0.0,15,335178370440276,640,21.0,47.849342346191406,16.821500778198242,0,0.0,0.0,,,,,0,,1,,
Raw,1707527035,3385681000000,,,-1225051792766172672,0.0,51.17874752613716,4.269818347518158,11.9640403017831,9,27,0.0,7183,335178363231843,40,21.1,510.2724609375,0.7099999785423279,0,0.0,0.0,,,,,0,,6,,
Fix,gps,-22.122576,-51.407801,443.479004,0.000000,9.648001,1541019962000
Raw,1707528017,3386681000000,,,-1225051792766172672,0.0,51.63314563105814,3.748632799198196,11.476328434791286,9,10,0.0,207,361373228787,1305,14.3,774.6649169921875,24.06100082397461,0,0.0,0.0,,,,,0,,3,,
Raw,1707528017,3386681000000,,,-1225051792766172672,0.0,51.63314563105814,3.748632799198196,11.476328434791286,9,6,0.0,207,361375294067,35,22.2,-219.05136108398438,1.0089999437332153,0,0.0,0.0,,,,,0,,3,,
Raw,1707528018,3386681000000,,,-1225051792766172672,0.0,51.63314563105814,3.748632799198196,11.476328434791286,9,22,0.0,207,361374156035,142,13.1,-93.39521789550781,4.067500114440918,0,0.0,0.0,,,,,0,,3,,
Raw,1707528018,3386681000000,,,-1225051792766172672,0.0,51.63314563105814,3.748632799198196,11.476328434791286,9,12,0.0,207,361375717621,635,12.8,-399.04937744140625,15.914000511169434,0,0.0,0.0,,,,,0,,3,,
Raw,1707528019,3386681000000,,,-1225051792766172672,0.0,51.63314563105814,3.748632799198196,11.476328434791286,9,11,0.0,207,361380726685,46,20.0,236.95208740234375,1.1165000200271606,0,0.0,0.0,,,,,0,,3,,
Raw,1707528020,3386681000000,,,-1225051792766172672,0.0,51.63314563105814,3.748632799198196,11.476328434791286,9,5,0.0,207,361367468879,175,18.2,357.6510925292969,7.842000484466553,0,0.0,0.0,,,,,0,,3,,
Raw,1707528021,3386681000000,,,-1225051792766172672,0.0,51.63314563105814,3.748632799198196,11.476328434791286,9,21,0.0,207,361375221433,14,30.7,220.4330291748047,0.2483000010251999,0,0.0,0.0,,,,,0,,3,,
Raw,1707528021,3386681000000,,,-1225051792766172672,0.0,51.63314563105814,3.748632799198196,11.476328434791286,9,7,0.0,207,361372212741,35,22.0,-651.6064453125,1.004499912261963,0,0.0,0.0,,,,,0,,3,,
Raw,1707528022,3386681000000,,,-1225051792766172672,0.0,51.63314563105814,3.748632799198196,11.476328434791286,9,5,0.0,15,335179368689359,14,30.0,429.5249938964844,0.037800002843141556,0,0.0,0.0,,,,,0,,1,,
Raw,1707528022,3386681000000,,,-1225051792766172672,0.0,51.63314563105814,3.748632799198196,11.476328434791286,9,10,0.0,15,335179362918025,404,15.5,-694.4482421875,12.419500350952148,0,0.0,0.0,,,,,0,,1,,
Raw,1707528024,3386681000000,,,-1225051792766172672,0.0,51.63314563105814,3.748632799198196,11.476328434791286,9,12,0.0,15,335179371380768,70,17.9,568.5118408203125,1.0130000114440918,0,0.0,0.0,,,,,0,,1,,
Raw,1707528025,3386681000000,,,-1225051792766172672,0.0,51.63314563105814,3.748632799198196,11.476328434791286,9,15,0.0,15,335179363697219,24,25.9,-251.40414428710938,0.3862999975681305,0,0.0,0.0,,,,,0,,1,,
Raw,1707528025,3386681000000,,,-1225051792766172672,0.0,51.63314563105814,3.748632799198196,11.476328434791286,9,20,0.0,15,335179372045685,341,11.6,-624.5628662109375,9.864500045776367,0,0.0,0.0,,,,,0,,1,,
Raw,1707528026,3386681000000,,,-1225051792766172672,0.0,51.63314563105814,3.748632799198196,11.476328434791286,9,21,0.0,15,335179376639414,61,18.7,-258.0762939453125,0.9404999613761902,0,0.0,0.0,,,,,0,,1,,
Raw,1707528027,3386681000000,,,-1225051792766172672,0.0,51.63314563105814,3.748632799198196,11.476328434791286,9,25,0.0,15,335179378259485,17,28.8,241.0327911376953,0.06030000001192093,0,0.0,0.0,,,,,0,,1,,
Raw,1707528027,3386681000000,,,-1225051792766172672,0.0,51.63314563105814,3.748632799198196,11.476328434791286,9,26,0.0,15,335179366415041,1120,14.4,-648.0736694335938,8.285500526428223,0,0.0,0.0,,,,,0,,1,,
Raw,1707528028,3386681000000,,,-1225051792766172672,0.0,51.63314563105814,3.748632799198196,11.476328434791286,9,29,0.0,15,335179375589851,11,33.5,-23.933074951171875,0.04540000110864639,0,0.0,0.0,,,,,0,,1,,
Raw,1707528028,3386681000000,,,-1225051792766172672,0.0,51.63314563105814,3.748632799198196,11.476328434791286,9,31,0.0,15,335179370440117,755,21.0,47.849342346191406,18.321500778198242,0,0.0,0.0,,,,,0,,1,,
Raw,1707528029,3386681000000,,,-1225051792766172672,0.0,51.63314563105814,3.748632799198196,11.476328434791286,9,27,0.0,7183,335179363230155,46,20.2,511.3095703125,0.7699999809265137,0,0.0,0.0,,,,,0,,6,,
Fix,gps,-22.122576,-51.407801,443.486572,0.000000,9.648001,1541019963000
Raw,1707529020,3387681000000,,,-1225051792766172672,0.0,53.7827581865713,4.086961091432839,13.979219460511851,9,10,0.0,207,362373226203,1465,14.3,774.6649169921875,25.56100082397461,0,0.0,0.0,,,,,0,,3,,
Raw,1707529021,3387681000000,,,-1225051792766172672,0.0,53.7827581865713,4.086961091432839,13.979219460511851,9,6,0.0,207,362375294862,31,23.8,-219.44488525390625,0.9489999413490295,0,0.0,0.0,,,,,0,,3,,
Raw,1707529021,3387681000000,,,-1225051792766172672,0.0,53.7827581865713,4.086961091432839,13.979219460511851,9,22,0.0,207,362374156328,70,17.1,-93.5919189453125,1.3875000476837158,0,0.0,0.0,,,,,0,,3,,
Raw,1707529022,3387681000000,,,-1225051792766172672,0.0,53.7827581865713,4.086961091432839,13.979219460511851,9,12,0.0,207,362375718952,740,12.8,-399.04937744140625,17.41400146484375,0,0.0,0.0,,,,,0,,3,,
Raw,1707529022,3387681000000,,,-1225051792766172672,0.0,53.7827581865713,4.086961091432839,13.979219460511851,9,11,0.0,207,362380725881,80,16.6,237.8316192626953,1.4565000534057617,0,0.0,0.0,,,,,0,,3,,
Raw,1707529023,3387681000000,,,-1225051792766172672,0.0,53.7827581865713,4.086961091432839,13.979219460511851,9,5,0.0,207,362367467686,229,18.2,357.6510925292969,9.342000007629395,0,0.0,0.0,,,,,0,,3,,
Raw,1707529023,3387681000000,,,-1225051792766172672,0.0,53.7827581865713,4.086961091432839,13.979219460511851,9,21,0.0,207,362375220670,14,30.6,220.4913330078125,0.2483000010251999,0,0.0,0.0,,,,,0,,3,,
Raw,1707529024,3387681000000,,,-1225051792766172672,0.0,53.7827581865713,4.086961091432839,13.979219460511851,9,7,0.0,207,362372214903,35,22.6,-652.5498046875,1.004499912261963,0,0.0,0.0,,,,,0,,3,,
Raw,1707529024,3387681000000,,,-1225051792766172672,0.0,53.7827581865713,4.086961091432839,13.979219460511851,9,5,0.0,15,335180368687911,16,29.1,429.6073913574219,0.038700003176927567,0,0.0,0.0,,,,,0,,1,,
Raw,1707529025,3387681000000,,,-1225051792766172672,0.0,53.7827581865713,4.086961091432839,13.979219460511851,9,10,0.0,15,335180362920341,488,15.5,-694.4482421875,13.919500350952148,0,0.0,0.0,,,,,0,,1,,
Raw,1707529026,3387681000000,,,-1225051792766172672,0.0,53.7827581865713,4.086961091432839,13.979219460511851,9,12,0.0,15,335180371378907,53,19.3,567.31298828125,0.8629999756813049,0,0.0,0.0,,,,,0,,1,,
Raw,1707529026,3387681000000,,,-1225051792766172672,0.0,53.7827581865713,4.086961091432839,13.979219460511851,9,15,0.0,15,335180363698043,21,26.2,-251.4183807373047,0.11569999903440475,0,0.0,0.0,,,,,0,,1,,
Raw,1707529027,3387681000000,,,-1225051792766172672,0.0,53.7827581865713,4.086961091432839,13.979219460511851,9,20,0.0,15,335180372047769,406,11.6,-624.5628662109375,11.364500045776367,0,0.0,0.0,,,,,0,,1,,
Raw,1707529027,3387681000000,,,-1225051792766172672,0.0,53.7827581865713,4.086961091432839,13.979219460511851,9,21,0.0,15,335180376640266,40,21.8,-258.4283142089844,0.750499963760376,0,0.0,0.0,,,,,0,,1,,
Raw,1707529028,3387681000000,,,-1225051792766172672,0.0,53.7827581865713,4.086961091432839,13.979219460511851,9,25,0.0,15,335180378258680,17,28.6,241.24429321289062,0.06030000001192093,0,0.0,0.0,,,,,0,,1,,
Raw,1707529029,3387681000000,,,-1225051792766172672,0.0,53.7827581865713,4.086961091432839,13.979219460511851,9,26,0.0,15,335180366417190,1300,14.2,-647.9309692382812,9.135499954223633,0,0.0,0.0,,,,,0,,1,,
Raw,1707529029,3387681000000,,,-1225051792766172672,0.0,53.7827581865713,4.086961091432839,13.979219460511851,9,29,0.0,15,335180375589945,12,32.3,-23.87742042541504,0.046400003135204315,0,0.0,0.0,,,,,0,,1,,
Raw,1707529030,3387681000000,,,-1225051792766172672,0.0,53.7827581865713,4.086961091432839,13.979219460511851,9,31,0.0,15,335180370439957,880,21.0,47.849342346191406,19.821500778198242,0,0.0,0.0,,,,,0,,1,,
Raw,1707529030,3387681000000,,,-1225051792766172672,0.0,53.7827581865713,4.086961091432839,13.979219460511851,9,27,0.0,7183,335180363228505,35,22.1,511.4808654785156,0.6600000262260437,0,0.0,0.0,,,,,0,,6,,
Fix,gps,-22.122576,-51.407801,443.493469,0.000000,9.648001,1541019964000
Raw,1707530025,3388681000000,,,-1225051792766172672,0.0,52.07620051805861,4.4794514470787705,11.456571324155034,9,10,0.0,207,363373223619,1635,14.3,774.6649169921875,27.06100082397461,0,0.0,0.0,,,,,0,,3,,
Raw,1707530026,3388681000000,,,-1225051792766172672,0.0,52.07620051805861,4.4794514470787705,11.456571324155034,9,6,0.0,207,363375295611,31,23.8,-218.83584594726562,0.9489999413490295,0,0.0,0.0,,,,,0,,3,,
Raw,1707530027,3388681000000,,,-1225051792766172672,0.0,52.07620051805861,4.4794514470787705,11.456571324155034,9,22,0.0,207,363374156655,46,20.1,-92.93624877929688,1.1375000476837158,0,0.0,0.0,,,,,0,,3,,
Raw,1707530027,3388681000000,,,-1225051792766172672,0.0,52.07620051805861,4.4794514470787705,11.456571324155034,9,12,0.0,207,363375720283,854,12.8,-399.04937744140625,18.91400146484375,0,0.0,0.0,,,,,0,,3,,
Raw,1707530028,3388681000000,,,-1225051792766172672,0.0,52.07620051805861,4.4794514470787705,11.456571324155034,9,11,0.0,207,363380725212,70,17.5,238.54273986816406,1.3665000200271606,0,0.0,0.0,,,,,0,,3,,
Raw,1707530029,3388681000000,,,-1225051792766172672,0.0,52.07620051805861,4.4794514470787705,11.456571324155034,9,5,0.0,207,363367466493,292,18.2,357.6510925292969,10.842000007629395,0,0.0,0.0,,,,,0,,3,,
Raw,1707530030,3388681000000,,,-1225051792766172672,0.0,52.07620051805861,4.4794514470787705,11.456571324155034,9,21,0.0,207,363375219974,14,30.8,220.50408935546875,0.2483000010251999,0,0.0,0.0,,,,,0,,3,,
Raw,1707530030,3388681000000,,,-1225051792766172672,0.0,52.07620051805861,4.4794514470787705,11.456571324155034,9,7,0.0,207,363372216980,27,24.7,-652.1762084960938,0.8844999670982361,0,0.0,0.0,,,,,0,,3,,
Raw,1707530031,3388681000000,,,-1225051792766172672,0.0,52.07620051805861,4.4794514470787705,11.456571324155034,9,5,0.0,15,335181368686476,16,29.0,429.84222412109375,0.038700003176927567,0,0.0,0.0,,,,,0,,1,,
Raw,1707530032,3388681000000,,,-1225051792766172672,0.0,52.07620051805861,4.4794514470787705,11.456571324155034,9,10,0.0,15,335181362922657,582,15.5,-694.4482421875,15.419500350952148,0,0.0,0.0,,,,,0,,1,,
Raw,1707530032,3388681000000,,,-1225051792766172672,0.0,52.07620051805861,4.4794514470787705,11.456571324155034,9,12,0.0,15,335181371377067,46,20.3,568.7973022460938,0.8029999732971191,0,0.0,0.0,,,,,0,,1,,
Raw,1707530034,3388681000000,,,-1225051792766172672,0.0,52.07620051805861,4.4794514470787705,11.456571324155034,9,15,0.0,15,335181363698854,27,24.7,-251.38746643066406,0.581000030040741,0,0.0,0.0,,,,,0,,1,,
Raw,1707530035,3388681000000,,,-1225051792766172672,0.0,52.07620051805861,4.4794514470787705,11.456571324155034,9,20,0.0,15,335181372049927,73,17.4,-625.343017578125,1.7645000219345093,0,0.0,0.0,,,,,0,,1,,
Raw,1707530035,3388681000000,,,-1225051792766172672,0.0,52.07620051805861,4.4794514470787705,11.456571324155034,9,21,0.0,15,335181376641099,31,23.9,-258.238037109375,0.640500009059906,0,0.0,0.0,,,,,0,,1,,
Raw,1707530036,3388681000000,,,-1225051792766172672,0.0,52.07620051805861,4.4794514470787705,11.456571324155034,9,25,0.0,15,335181378257870,14,30.3,241.42501831054688,0.06780000030994415,0,0.0,0.0,,,,,0,,1,,
Raw,1707530036,3388681000000,,,-1225051792766172672,0.0,52.07620051805861,4.4794514470787705,11.456571324155034,9,26,0.0,15,335181366419339,1330,13.9,-648.1688232421875,9.88550090789795,0,0.0,0.0,,,,,0,,1,,
Raw,1707530037,3388681000000,,,-1225051792766172672,0.0,52.07620051805861,4.4794514470787705,11.456571324155034,9,29,0.0,15,335181375590041,14,30.8,-23.73427391052246,0.04830000177025795,0,0.0,0.0,,,,,0,,1,,
Raw,1707530038,3388681000000,,,-1225051792766172672,0.0,52.07620051805861,4.4794514470787705,11.456571324155034,9,31,0.0,15,335181370439797,1014,21.0,47.849342346191406,21.321500778198242,0,0.0,0.0,,,,,0,,1,,
Raw,1707530038,3388681000000,,,-1225051792766172672,0.0,52.07620051805861,4.4794514470787705,11.456571324155034,9,27,0.0,7183,335181363226777,31,23.2,510.5293884277344,0.6200000047683716,0,0.0,0.0,,,,,0,,6,,
Fix,gps,-22.122576,-51.407801,443.493347,0.000000,9.648001,1541019965000
Raw,1707531038,3389681000000,,,-1225051792766172672,0.0,51.89616422285326,4.793769875421622,12.298038301081528,9,10,0.0,207,364373221035,1815,14.3,774.6649169921875,28.56100082397461,0,0.0,0.0,,,,,0,,3,,
Raw,1707531038,3389681000000,,,-1225051792766172672,0.0,51.89616422285326,4.793769875421622,12.298038301081528,9,6,0.0,207,364375296234,31,23.0,-218.37672424316406,0.9489999413490295,0,0.0,0.0,,,,,0,,3,,
Raw,1707531039,3389681000000,,,-1225051792766172672,0.0,51.89616422285326,4.793769875421622,12.298038301081528,9,22,0.0,207,364374156965,55,20.1,-92.93624877929688,2.637500047683716,0,0.0,0.0,,,,,0,,3,,
