# 
# Header Description:
# 
# Version: v2.0.0.1 Platform: 7.0 Manufacturer: HUAWEI Model: MHA-L09
# 
# Raw,ElapsedRealtimeMillis,TimeNanos,LeapSecond,TimeUncertaintyNanos,FullBiasNanos,BiasNanos,BiasUncertaintyNanos,DriftNanosPerSecond,DriftUncertaintyNanosPerSecond,HardwareClockDiscontinuityCount,Svid,TimeOffsetNanos,State,ReceivedSvTimeNanos,ReceivedSvTimeUncertaintyNanos,Cn0DbHz,PseudorangeRateMetersPerSecond,PseudorangeRateUncertaintyMetersPerSecond,AccumulatedDeltaRangeState,AccumulatedDeltaRangeMeters,AccumulatedDeltaRangeUncertaintyMeters,CarrierFrequencyHz,CarrierCycles,CarrierPhase,CarrierPhaseUncertainty,MultipathIndicator,SnrInDb,ConstellationType,AgcDb,CarrierFrequencyHz
# 
# Fix,Provider,Latitude,Longitude,Altitude,Speed,Accuracy,(UTC)TimeInMs
# 
# Nav,Svid,Type,Status,MessageId,Sub-messageId,Data(Bytes)
# 
Fix,gps,-22.121015,-51.408946,437.790467,0.000000,6.000000,1513187696423
NMEA,$PGLOR,1,AGC,G,-22.3,R,-30.8,B,-30.2*5F
,1513187697138
Raw,154477749,169714000000,,,-1197222745285885704,0.0,13.34764882042088,,,0,2,0.0,39,323714920729830,56,24.491586685180664,861.0679067011515,0.28179551456399055,1,141582.48669801286,0.005107520613819361,,,,,0,,1,,
Raw,154477749,169714000000,,,-1197222745285885704,0.0,13.34764882042088,,,0,5,0.0,47,323714924212719,82,18.659194946289062,207.1253253786624,4.200757824537776,4,31534.082812731896,3.4028234663852886E38,,,,,0,,1,,
Raw,154477750,169714000000,,,-1197222745285885704,0.0,13.34764882042088,,,0,12,0.0,47,323714930277421,33,28.965072631835938,346.7631265350949,0.16798886685049497,1,56798.752128854605,0.0030516579281538725,,,,,0,,1,,
Raw,154477750,169714000000,,,-1197222745285885704,0.0,13.34764882042088,,,0,20,0.0,47,323714927532848,69,21.161823272705078,-239.5426834880509,4.2013550663345,4,-39573.866676965496,3.4028234663852886E38,,,,,0,,1,,
Raw,154477750,169714000000,,,-1197222745285885704,0.0,13.34764882042088,,,0,21,0.0,39,323714924486264,69,21.048370361328125,-371.1505556403397,4.200807084338219,4,-62688.68927933885,3.4028234663852886E38,,,,,0,,1,,
Raw,154477751,169714000000,,,-1197222745285885704,0.0,13.34764882042088,,,0,24,0.0,16,20883711,1000000000,7.0,819.6543819451977,2.99792458E8,4,112302.87853188292,3.4028234663852886E38,,,,,1,,1,,
Raw,154477751,169714000000,,,-1197222745285885704,0.0,13.34764882042088,,,0,25,0.0,47,323714930832722,60,23.790246963500977,-79.17124593667324,0.30339903243765276,4,-14207.199038952038,3.4028234663852886E38,,,,,0,,1,,
Raw,154477752,169714000000,,,-1197222745285885704,0.0,13.34764882042088,,,0,29,0.0,47,323714928171794,79,19.099510192871094,151.3590987791922,4.201469828356073,4,25092.41130832954,3.4028234663852886E38,,,,,0,,1,,
Raw,154477752,169714000000,,,-1197222745285885704,0.0,13.34764882042088,,,0,18,0.0,99,26930970936,166,18.951053619384766,403.2069464526951,4.201973609666551,4,62785.502819701906,3.4028234663852886E38,,,,,1,,3,,
Raw,154477753,169714000000,,,-1197222745285885704,0.0,13.34764882042088,,,0,16,0.0,64,26933008994,1000000000,7.0,-183.8971258258997,2.99792458E8,4,-26567.427651522587,3.4028234663852886E38,,,,,1,,3,,
Raw,154477753,169714000000,,,-1197222745285885704,0.0,13.34764882042088,,,0,15,0.0,227,75296932932727,65,21.88492202758789,724.1227559398471,4.2023264163454,4,115982.19928173807,3.4028234663852886E38,,,,,0,,3,,
Raw,154477753,169714000000,,,-1197222745285885704,0.0,13.34764882042088,,,0,19,0.0,17,6778915,96,15.865438461303711,-3.9189603462384976,4.201219269046792,4,-1124.7203622118523,3.4028234663852886E38,,,,,0,,3,,
Raw,154477754,169714000000,,,-1197222745285885704,0.0,13.34764882042088,,,0,17,0.0,227,75296923895703,86,26.743759155273438,658.7549901010534,0.21525659097860472,1,92519.42680906756,0.00387013191357255,,,,,0,,3,,
Raw,154477754,169714000000,,,-1197222745285885704,0.0,13.34764882042088,,,0,3,0.0,99,26922637324,98,15.427957534790039,-325.02298407534636,4.20047451411793,4,-45074.34219046967,3.4028234663852886E38,,,,,0,,3,,
NMEA,$GPGGA,175457.00,2207.260919,S,05124.536733,W,1,12,0.8,437.8,M,0.0,M,,*52
,1513187697139
NMEA,$PGLOR,9,STA,175457.00,-0.941,0.000,608,1,8,0,P,F,L,0,C,3,S,00180002,18,5,R,000833F4,TPEF,19,169714,LC,,,*6E
,1513187697139
NMEA,$PGLOR,1,UNC,175457.00,0.013,8.0,3.0,0.23,135.53,5.7,5.7,0.0*21
,1513187697139
NMEA,$PGLOR,2,SAT,4,1,G25,24,1F,G12,29,1F,R15,22,3F,R16,,30,G29,19,1F,R18,19,3B*5A
,1513187697139
NMEA,$PGLOR,2,SAT,4,2,G20,21,1F,G21,21,1F,G05,19,17,R19,16,3F,G24,,10,R17,27,1F*37
,1513187697139
NMEA,$PGLOR,2,SAT,4,3,G02,24,1F,R03,15,3F,G31,,30,R02,,30,R09,,30,G18,,30*21
,1513187697139
NMEA,$PGLOR,2,SAT,4,4,G15,,10,B14,,0,B11,,0*59
,1513187697139
NMEA,$PGLOR,1,SVC,GPS,3,1,11,012,UNKN,UNKN,020,UNKN,UNKN,025,UNKN,UNKN,029,UNKN,UNKN*7A
,1513187697139
NMEA,$PGLOR,1,SVC,GPS,3,2,11,002,UNKN,UNKN,005,UNKN,UNKN,021,CLIN,CLIN,024,UNKN,UNKN*76
,1513187697139
NMEA,$PGLOR,1,SVC,GPS,3,3,11,015,CLIN,CLIN,018,CLIN,CLIN,031,CLIN,CLIN*66
,1513187697139
NMEA,$PGLOR,1,SVC,GLO,2,1,08,056,UNKN,UNKN,058,CLIN,CLIN,059,UNKN,UNKN,062,UNKN,UNKN*78
,1513187697139
NMEA,$PGLOR,1,SVC,GLO,2,2,08,055,UNKN,UNKN,057,UNKN,UNKN,063,CLIN,CLIN,064,CLIN,CLIN*78
,1513187697139
NMEA,$PGLOR,1,SVC,BDS,1,1,02,091,CLIN,CLIN,094,CLIN,CLIN*63
,1513187697139
NMEA,$PGLOR,2,SIO,TxERR,0,RxERR,0,TxCNT,414,RxCNT,4381,MLFRMPKT,0,DTMS,1003,DTIN,19,45,DTOUT,100,956,HATMD,20*28
,1513187697139
NMEA,$PGLOR,1,HLA,175457.00,L,,Al,,A,,H,,,M,1,Ac,0,Gr,0,S,,,Sx,,,T,0,Tr,,Mn,,Ap,437,Ta,0,,*07
,1513187697139
NMEA,$PGLOR,2,CTX,175457.00,E,3,1,,,V,0,1,S,,,*7F
,1513187697139
NMEA,$PGLOR,4,PWR,mA,42.6,RFTm,1002,OscTm,1002,MeasTm,1002,UTC,175457.00,GNSSmA,43,CPUTm,200,COPTm,48,SrchTm,361,TrkTm,9,RpcT,1513187697139
NMEA,$GPGSV,3,1,11,25,68,178,25,12,56,079,29,29,45,203,20,20,42,031,21*72
,1513187697140
NMEA,$GPGSV,3,2,11,21,34,307,22,05,33,100,19,24,18,003,,02,15,140,24*7D
,1513187697140
NMEA,$GPGSV,3,3,11,31,16,229,,18,03,342,,15,00,028,*44
,1513187697140
NMEA,$GLGSV,2,1,08,79,53,004,22,80,53,225,,82,43,202,19,83,28,266,17*69
,1513187697140
NMEA,$GLGSV,2,2,08,81,18,148,27,67,14,059,17,66,11,109,,73,05,207,*67
,1513187697141
NMEA,$BDGSV,1,1,02,214,25,085,,211,14,126,*65
,1513187697141
NMEA,$GPGSA,A,3,02,05,12,20,21,25,29,,,,,,1.6,0.8,1.4*31
,1513187697141
NMEA,$GNGSA,A,3,02,05,12,20,21,25,29,,,,,,1.6,0.8,1.4*2F
,1513187697141
NMEA,$GNGSA,A,3,67,79,81,82,83,,,,,,,,1.6,0.8,1.4*21
,1513187697141
NMEA,$QZGSA,A,3,,,,,,,,,,,,,1.6,0.8,1.4*24
,1513187697141
NMEA,$IMGSA,A,3,,,,,,,,,,,,,1.6,0.8,1.4*2B
,1513187697141
NMEA,$BDGSA,A,3,,,,,,,,,,,,,1.6,0.8,1.4*29
,1513187697141
NMEA,$GAGSA,A,3,,,,,,,,,,,,,1.6,0.8,1.4*29
,1513187697141
NMEA,$PGLOR,1,FIX,1.0,1.0*20
,1513187697142
NMEA,$GPRMC,175457.00,A,2207.260919,S,05124.536733,W,000.0,,131217,,,A*7A
,1513187697142
Fix,gps,-22.121015,-51.408946,437.796344,0.000000,8.000000,1513187697425
Nav,104,769,1,5,14,112,-18,-107,15,119,-18,119,66,-21,58,64
NMEA,$PGLOR,1,AGC,G,-23.1,R,-30.9,B,-31.0*5E
,1513187698133
NMEA,$GPGGA,175458.00,2207.260919,S,05124.536733,W,1,12,0.8,437.7,M,0.0,M,,*52
,1513187698133
NMEA,$PGLOR,9,STA,175458.00,-0.941,0.000,609,1,8,0,P,F,L,0,C,3,S,00180002,18,5,R,000833F4,TPEF,19,170714,LC,,,*68
,1513187698133
Raw,154478768,170714000000,,,-1197222745285885094,0.0,12.996888730357231,,,0,2,0.0,39,323715920726912,56,24.418960571289062,860.7304222166626,0.28412979671566463,4,142443.58343031575,3.4028234663852886E38,,,,,0,,1,,
Raw,154478769,170714000000,,,-1197222745285885094,0.0,12.996888730357231,,,0,5,0.0,47,323715924212057,89,17.14599609375,207.1930131373167,4.2007575582685845,4,31741.030322038605,3.4028234663852886E38,,,,,0,,1,,
Raw,154478769,170714000000,,,-1197222745285885094,0.0,12.996888730357231,,,0,12,0.0,47,323715930276283,33,28.975505828857422,346.9309485510132,0.16778923152410452,1,57145.57306940369,0.0030479945708066225,,,,,0,,1,,
Raw,154478770,170714000000,,,-1197222745285885094,0.0,12.996888730357231,,,0,20,0.0,47,323715927533572,70,20.84076499938965,-239.01951778042576,4.2013550663345,4,-39813.518287478844,3.4028234663852886E38,,,,,0,,1,,
Raw,154478770,170714000000,,,-1197222745285885094,0.0,12.996888730357231,,,0,21,0.0,39,323715924487477,67,21.450456619262695,-370.63577421701916,4.200807084338219,4,-63059.537678679255,3.4028234663852886E38,,,,,0,,1,,
Raw,154478770,170714000000,,,-1197222745285885094,0.0,12.996888730357231,,,0,24,0.0,16,20880977,1000000000,7.0,819.4687688869744,2.99792458E8,4,113122.3432370464,3.4028234663852886E38,,,,,1,,1,,
Raw,154478771,170714000000,,,-1197222745285885094,0.0,12.996888730357231,,,0,25,0.0,47,323715930832939,59,23.969013214111328,-78.98649346047722,0.29725826577403414,4,-14285.853725457775,3.4028234663852886E38,,,,,0,,1,,
Raw,154478771,170714000000,,,-1197222745285885094,0.0,12.996888730357231,,,0,29,0.0,47,323715928171285,74,20.186275482177734,151.5472850628829,4.201469828356073,4,25243.819257500716,3.4028234663852886E38,,,,,0,,1,,
Raw,154478772,170714000000,,,-1197222745285885094,0.0,12.996888730357231,,,0,18,0.0,99,27930969709,166,18.56155014038086,403.54337438103175,4.201973343397359,4,63189.59270788031,3.4028234663852886E38,,,,,1,,3,,
Raw,154478772,170714000000,,,-1197222745285885094,0.0,12.996888730357231,,,0,16,0.0,64,27933009604,1000000000,7.0,-183.71427344665483,2.99792458E8,4,-26750.959826615,3.4028234663852886E38,,,,,1,,3,,
Raw,154478772,170714000000,,,-1197222745285885094,0.0,12.996888730357231,,,0,15,0.0,227,75297932930343,63,22.363197326660156,723.3297253414744,4.202325883807017,4,116706.33619409107,3.4028234663852886E38,,,,,0,,3,,
Raw,154478773,170714000000,,,-1197222745285885094,0.0,12.996888730357231,,,0,19,0.0,17,6778902,95,16.128822326660156,-3.7904598994566054,4.201219269046792,4,-1128.0064953810222,3.4028234663852886E38,,,,,0,,3,,
Raw,154478773,170714000000,,,-1197222745285885094,0.0,12.996888730357231,,,0,17,0.0,227,75297923893499,91,26.32163429260254,658.7384260271833,0.22594095848559603,1,93178.20587158622,0.004062861669808626,,,,,0,,3,,
Raw,154478774,170714000000,,,-1197222745285885094,0.0,12.996888730357231,,,0,3,0.0,99,27922638255,166,17.81179428100586,-324.9378801814089,4.20047451411793,4,-45399.39979725182,3.4028234663852886E38,,,,,1,,3,,
NMEA,$PGLOR,1,UNC,175458.00,0.013,8.0,3.0,0.91,155.99,5.7,5.7,0.0*27
,1513187698133
NMEA,$PGLOR,2,SAT,4,1,G25,24,1F,G12,29,1F,R15,22,37,R16,,30,G29,20,1F,R18,19,3F*25
,1513187698133
NMEA,$PGLOR,2,SAT,4,2,G20,21,1F,G21,21,1F,G05,17,1F,R19,16,3F,G24,,10,R17,26,1F*49
,1513187698133
NMEA,$PGLOR,2,SAT,4,3,G02,24,1F,R03,18,3B,G31,,30,R02,,30,R09,,30,G18,,30*28
,1513187698133
NMEA,$PGLOR,2,SAT,4,4,G15,,10,B14,,0,B11,,0*59
,1513187698133
NMEA,$PGLOR,1,SVC,GPS,3,1,11,012,UNKN,UNKN,020,UNKN,UNKN,025,UNKN,UNKN,029,UNKN,UNKN*7A
,1513187698133
NMEA,$PGLOR,1,SVC,GPS,3,2,11,002,UNKN,UNKN,005,UNKN,UNKN,021,CLIN,CLIN,024,UNKN,UNKN*76
,1513187698133
NMEA,$PGLOR,1,SVC,GPS,3,3,11,015,CLIN,CLIN,018,CLIN,CLIN,031,CLIN,CLIN*66
,1513187698133
NMEA,$PGLOR,1,SVC,GLO,2,1,08,056,UNKN,UNKN,058,CLIN,CLIN,059,UNKN,UNKN,062,UNKN,UNKN*78
,1513187698133
NMEA,$PGLOR,1,SVC,GLO,2,2,08,055,UNKN,UNKN,057,UNKN,UNKN,063,CLIN,CLIN,064,CLIN,CLIN*78
,1513187698133
NMEA,$PGLOR,1,SVC,BDS,1,1,02,091,CLIN,CLIN,094,CLIN,CLIN*63
,1513187698133
NMEA,$PGLOR,2,SIO,TxERR,0,RxERR,0,TxCNT,552,RxCNT,4340,MLFRMPKT,0,DTMS,995,DTIN,28,40,DTOUT,101,956,HATMD,15*11
,1513187698133
NMEA,$PGLOR,1,HLA,175458.00,L,,Al,,A,,H,,,M,1,Ac,0,Gr,0,S,,,Sx,,,T,0,Tr,,Mn,,Ap,437,Ta,0,,*08
,1513187698133
NMEA,$PGLOR,2,CTX,175458.00,E,3,1,,,V,0,1,S,,,*70
,1513187698133
NMEA,$PGLOR,4,PWR,mA,57.2,RFTm,998,OscTm,998,MeasTm,998,UTC,175458.00,GNSSmA,57,CPUTm,203,COPTm,49,SrchTm,747,TrkTm,7,RpcTm,8,1513187698133
NMEA,$GPGSV,3,1,11,25,68,178,25,12,56,079,29,29,45,202,20,20,42,031,21*73
,1513187698133
NMEA,$GPGSV,3,2,11,21,34,307,22,05,33,100,19,24,18,003,,02,15,140,24*7D
,1513187698133
NMEA,$GPGSV,3,3,11,31,16,229,,18,03,342,,15,00,028,*44
,1513187698133
NMEA,$GLGSV,2,1,08,79,53,004,22,80,53,225,,82,43,202,19,83,28,266,17*69
,1513187698133
NMEA,$GLGSV,2,2,08,81,18,148,27,67,14,059,18,66,11,109,,73,05,207,*68
,1513187698133
NMEA,$BDGSV,1,1,02,214,25,085,,211,14,126,*65
,1513187698133
NMEA,$GPGSA,A,3,02,05,12,20,21,25,29,,,,,,1.8,0.9,1.6*3C
,1513187698133
NMEA,$GNGSA,A,3,02,05,12,20,21,25,29,,,,,,1.8,0.9,1.6*22
,1513187698133
NMEA,$GNGSA,A,3,67,79,81,82,83,,,,,,,,1.8,0.9,1.6*2C
,1513187698133
NMEA,$QZGSA,A,3,,,,,,,,,,,,,1.8,0.9,1.6*29
,1513187698133
NMEA,$IMGSA,A,3,,,,,,,,,,,,,1.8,0.9,1.6*26
,1513187698133
NMEA,$BDGSA,A,3,,,,,,,,,,,,,1.8,0.9,1.6*24
,1513187698133
NMEA,$GAGSA,A,3,,,,,,,,,,,,,1.8,0.9,1.6*24
,1513187698133
NMEA,$PGLOR,1,FIX,1.0,1.0*20
,1513187698133
NMEA,$GPRMC,175458.00,A,2207.260919,S,05124.536733,W,000.0,,131217,,,A*75
,1513187698133
Fix,gps,-22.121015,-51.408946,437.785533,0.000000,8.000000,1513187698427
NMEA,$PGLOR,1,AGC,G,-22.8,R,-31.0,B,-31.0*5E
,1513187699132
Raw,154479726,171714000000,,,-1197222745285884485,0.0,12.624026252546427,,,0,2,0.0,39,323716920724069,57,24.33220100402832,861.1010348488917,0.28694412893611654,1,143304.72213664962,0.005202108528465033,,,,,0,,1,,
Raw,154479726,171714000000,,,-1197222745285884485,0.0,12.624026252546427,,,0,5,0.0,47,323716924211386,96,15.774283409118652,207.23295777636145,4.2007575582685845,4,31947.93123776525,3.4028234663852886E38,,,,,0,,1,,
Raw,154479726,171714000000,,,-1197222745285884485,0.0,12.624026252546427,,,0,12,0.0,47,323716930275119,32,29.297992706298828,347.0087587992548,0.16174096012091255,1,57492.50609661097,0.0029369043186306953,,,,,0,,1,,
Raw,154479727,171714000000,,,-1197222745285884485,0.0,12.624026252546427,,,0,20,0.0,47,323716927534357,71,20.72030258178711,-239.0690395897534,4.201355332603692,4,-40053.04350567286,3.4028234663852886E38,,,,,0,,1,,
Raw,154479727,171714000000,,,-1197222745285884485,0.0,12.624026252546427,,,0,21,0.0,39,323716924488696,69,21.013507843017578,-370.9848467367258,4.200807350607411,4,-63430.30162105479,3.4028234663852886E38,,,,,0,,1,,
Raw,154479728,171714000000,,,-1197222745285884485,0.0,12.624026252546427,,,0,24,0.0,16,20878238,1000000000,7.0,819.4687688869744,2.99792458E8,4,113942.17553157774,3.4028234663852886E38,,,,,1,,1,,
Raw,154479728,171714000000,,,-1197222745285884485,0.0,12.624026252546427,,,0,25,0.0,47,323716930833191,63,22.23830223083496,-78.55466021571908,4.201948580362542,4,-14364.370622114495,3.4028234663852886E38,,,,,0,,1,,
Raw,154479729,171714000000,,,-1197222745285884485,0.0,12.624026252546427,,,0,29,0.0,47,323716928170755,72,20.424560546875,151.6596549220386,4.201469828356073,4,25395.24373153197,3.4028234663852886E38,,,,,0,,1,,
Raw,154479729,171714000000,,,-1197222745285884485,0.0,12.624026252546427,,,0,18,0.0,99,28930968362,77,19.48847198486328,403.5026117630305,4.201973343397359,4,63592.96841848113,3.4028234663852886E38,,,,,0,,3,,
Raw,154479729,171714000000,,,-1197222745285884485,0.0,12.624026252546427,,,0,16,0.0,64,28933010215,1000000000,7.0,-183.25855692048833,2.99792458E8,4,-26934.11442892962,3.4028234663852886E38,,,,,1,,3,,
Raw,154479730,171714000000,,,-1197222745285884485,0.0,12.624026252546427,,,0,15,0.0,227,75298932927864,63,22.21314239501953,723.8785892213177,4.202325351268634,4,117430.68351589193,3.4028234663852886E38,,,,,0,,3,,
Raw,154479730,171714000000,,,-1197222745285884485,0.0,12.624026252546427,,,0,19,0.0,17,6779036,87,17.560693740844727,-3.8490745354076665,4.201219535315984,4,-1131.5944411900284,3.4028234663852886E38,,,,,0,,3,,
Raw,154479730,171714000000,,,-1197222745285884485,0.0,12.624026252546427,,,0,17,0.0,227,75298923891244,91,26.250478744506836,658.7600343046188,0.22779329340050225,1,93836.99905938981,0.004096281714737415,,,,,0,,3,,
Raw,154479730,171714000000,,,-1197222745285884485,0.0,12.624026252546427,,,0,3,0.0,99,28922639259,83,18.340858459472656,-324.9913896381497,4.200474780387122,4,-45724.35540719831,3.4028234663852886E38,,,,,0,,3,,
NMEA,$GPGGA,175459.00,2207.260919,S,05124.536733,W,1,12,0.8,437.7,M,0.0,M,,*53
,1513187699132
NMEA,$PGLOR,9,STA,175459.00,-0.941,0.000,609,1,8,0,P,F,L,0,C,3,S,00180002,18,5,R,000833F4,TPEF,19,171714,LC,,,*68
,1513187699132
NMEA,$PGLOR,1,UNC,175459.00,0.013,8.0,3.0,0.42,127.41,5.7,5.7,0.0*28
,1513187699132
NMEA,$PGLOR,2,SAT,4,1,G25,22,1F,G12,29,1F,R15,22,37,R16,,30,G29,20,1B,R18,19,3F*27
,1513187699132
NMEA,$PGLOR,2,SAT,4,2,G20,21,1F,G21,21,1F,G05,16,1F,R19,18,3F,G24,,10,R17,26,1F*46
,1513187699132
NMEA,$PGLOR,2,SAT,4,3,G02,24,1F,R03,18,3B,G31,,30,R02,,30,R09,,30,G18,,30*28
,1513187699132
NMEA,$PGLOR,2,SAT,4,4,G15,,10,B14,,0,B11,,0*59
,1513187699132
NMEA,$PGLOR,1,SVC,GPS,3,1,11,012,UNKN,UNKN,020,UNKN,UNKN,025,UNKN,UNKN,029,UNKN,UNKN*7A
,1513187699132
NMEA,$PGLOR,1,SVC,GPS,3,2,11,002,UNKN,UNKN,005,UNKN,UNKN,021,CLIN,CLIN,024,UNKN,UNKN*76
,1513187699132
NMEA,$PGLOR,1,SVC,GPS,3,3,11,015,CLIN,CLIN,018,CLIN,CLIN,031,CLIN,CLIN*66
,1513187699132
NMEA,$PGLOR,1,SVC,GLO,2,1,08,056,UNKN,UNKN,058,CLIN,CLIN,059,UNKN,UNKN,062,UNKN,UNKN*78
,1513187699132
NMEA,$PGLOR,1,SVC,GLO,2,2,08,055,UNKN,UNKN,057,UNKN,UNKN,063,CLIN,CLIN,064,CLIN,CLIN*78
,1513187699132
NMEA,$PGLOR,1,SVC,BDS,1,1,02,091,CLIN,CLIN,094,CLIN,CLIN*63
,1513187699132
NMEA,$PGLOR,2,SIO,TxERR,0,RxERR,0,TxCNT,414,RxCNT,4259,MLFRMPKT,0,DTMS,999,DTIN,22,28,DTOUT,100,970,HATMD,14*17
,1513187699132
NMEA,$PGLOR,1,HLA,175459.00,L,,Al,,A,,H,,,M,1,Ac,0,Gr,0,S,,,Sx,,,T,0,Tr,,Mn,,Ap,437,Ta,0,,*09
,1513187699132
NMEA,$PGLOR,2,CTX,175459.00,E,3,1,,,V,0,1,S,,,*71
,1513187699132
NMEA,$PGLOR,4,PWR,mA,41.5,RFTm,999,OscTm,999,MeasTm,999,UTC,175459.00,GNSSmA,42,CPUTm,198,COPTm,51,SrchTm,331,TrkTm,8,RpcTm,8,1513187699132
NMEA,$GPGSV,3,1,11,25,68,178,24,12,56,079,29,29,45,202,20,20,42,031,21*72
,1513187699132
NMEA,$GPGSV,3,2,11,21,34,307,22,05,33,100,19,24,18,003,,02,15,140,24*7D
,1513187699132
NMEA,$GPGSV,3,3,11,31,16,229,,18,03,342,,15,00,028,*44
,1513187699132
NMEA,$GLGSV,2,1,08,79,53,004,22,80,53,225,,82,43,202,19,83,28,266,18*66
,1513187699132
NMEA,$GLGSV,2,2,08,81,18,148,27,67,14,059,18,66,11,109,,73,05,207,*68
,1513187699132
NMEA,$BDGSV,1,1,02,214,25,085,,211,14,126,*65
,1513187699132
NMEA,$GPGSA,A,3,02,05,12,20,21,25,29,,,,,,1.9,0.9,1.7*3C
,1513187699132
NMEA,$GNGSA,A,3,02,05,12,20,21,25,29,,,,,,1.9,0.9,1.7*22
,1513187699132
NMEA,$GNGSA,A,3,67,79,81,82,83,,,,,,,,1.9,0.9,1.7*2C
,1513187699132
NMEA,$QZGSA,A,3,,,,,,,,,,,,,1.9,0.9,1.7*29
,1513187699132
NMEA,$IMGSA,A,3,,,,,,,,,,,,,1.9,0.9,1.7*26
,1513187699132
NMEA,$BDGSA,A,3,,,,,,,,,,,,,1.9,0.9,1.7*24
,1513187699132
NMEA,$GAGSA,A,3,,,,,,,,,,,,,1.9,0.9,1.7*24
,1513187699132
NMEA,$PGLOR,1,FIX,1.0,1.0*20
,1513187699132
NMEA,$GPRMC,175459.00,A,2207.260919,S,05124.536733,W,000.0,,131217,,,A*74
,1513187699132
Fix,gps,-22.121015,-51.408946,437.786787,0.000000,8.000000,1513187699430
Nav,104,769,1,5,15,122,-38,-91,-7,-101,-125,93,51,-92,-107,-16
NMEA,$PGLOR,1,AGC,G,-23.0,R,-31.7,B,-31.3*53
,1513187700141
Raw,154480741,172714000000,,,-1197222745285883876,0.0,12.26285357746646,,,0,2,0.0,39,323717920721192,57,24.336036682128906,861.1117367402398,0.28681858301228447,4,144165.8695690431,3.4028234663852886E38,,,,,0,,1,,
Raw,154480742,172714000000,,,-1197222745285883876,0.0,12.26285357746646,,,0,5,0.0,47,323717924210642,100,15.104303359985352,207.20385135849097,4.200757291999393,4,32154.881631112297,3.4028234663852886E38,,,,,0,,1,,
Raw,154480742,172714000000,,,-1197222745285883876,0.0,12.26285357746646,,,0,12,0.0,47,323717930273933,31,29.594863891601562,347.10330353364907,0.15636819701494586,1,57839.53400250967,0.0028382211457937956,,,,,0,,1,,
Raw,154480742,172714000000,,,-1197222745285883876,0.0,12.26285357746646,,,0,20,0.0,47,323717927535164,70,20.872032165527344,-239.25110807249825,4.201355332603692,4,-40292.5187424577,3.4028234663852886E38,,,,,0,,1,,
Raw,154480742,172714000000,,,-1197222745285883876,0.0,12.26285357746646,,,0,21,0.0,39,323717924489919,73,20.384668350219727,-371.14390956131774,4.200807616876602,4,-63800.991917621075,3.4028234663852886E38,,,,,0,,1,,
Raw,154480742,172714000000,,,-1197222745285883876,0.0,12.26285357746646,,,0,24,0.0,16,20875506,1000000000,7.0,819.8400631683339,2.99792458E8,4,114761.97035614339,3.4028234663852886E38,,,,,1,,1,,
Raw,154480743,172714000000,,,-1197222745285883876,0.0,12.26285357746646,,,0,25,0.0,47,323717930833455,61,22.688589096069336,-78.57994087784488,4.201948580362542,4,-14442.830442976448,3.4028234663852886E38,,,,,0,,1,,
Raw,154480743,172714000000,,,-1197222745285883876,0.0,12.26285357746646,,,0,29,0.0,47,323717928170325,71,20.61400604248047,151.678519561724,4.201469562086881,4,25546.672584824242,3.4028234663852886E38,,,,,0,,1,,
Raw,154480743,172714000000,,,-1197222745285883876,0.0,12.26285357746646,,,0,18,0.0,99,29930967037,166,20.700593948364258,403.48720649268216,4.201973077128168,4,63996.455132844945,3.4028234663852886E38,,,,,1,,3,,
Raw,154480743,172714000000,,,-1197222745285883876,0.0,12.26285357746646,,,0,16,0.0,64,29933010826,1000000000,7.0,-183.18732458635566,2.99792458E8,4,-27117.295006400644,3.4028234663852886E38,,,,,1,,3,,
Raw,154480743,172714000000,,,-1197222745285883876,0.0,12.26285357746646,,,0,15,0.0,227,75299932925501,62,22.43636131286621,724.7400573923883,4.202325084999442,4,118155.13031592638,3.4028234663852886E38,,,,,0,,3,,
Raw,154480744,172714000000,,,-1197222745285883876,0.0,12.26285357746646,,,0,19,0.0,17,6779015,88,17.36963653564453,-3.836244620680361,4.201219269046792,4,-1135.076093660926,3.4028234663852886E38,,,,,0,,3,,
Raw,154480744,172714000000,,,-1197222745285883876,0.0,12.26285357746646,,,0,17,0.0,227,75299923889015,92,26.201168060302734,658.7250657042264,0.22908578069827767,1,94495.75592411854,0.004119603428989649,,,,,0,,3,,
Raw,154480744,172714000000,,,-1197222745285883876,0.0,12.26285357746646,,,0,3,0.0,99,29922640419,92,16.668758392333984,-325.0453421668253,4.200475046656313,4,-46049.34311535887,3.4028234663852886E38,,,,,0,,3,,
NMEA,$GPGGA,175500.00,2207.260919,S,05124.536733,W,1,12,0.8,437.7,M,0.0,M,,*5E
,1513187700141
NMEA,$PGLOR,9,STA,175500.00,-0.941,0.000,609,1,8,0,P,F,L,0,C,3,S,00180002,18,5,R,000833F4,TPEF,19,172714,LC,,,*66
,1513187700141
NMEA,$PGLOR,1,UNC,175500.00,0.012,8.0,3.0,0.47,108.32,5.7,5.7,0.0*28
,1513187700142
NMEA,$PGLOR,2,SAT,4,1,G25,23,1F,G12,30,1F,R15,22,3F,R16,,30,G29,21,1F,R18,21,3F*51
,1513187700142
NMEA,$PGLOR,2,SAT,4,2,G20,21,1F,G21,20,17,G05,15,1F,R19,17,3F,G24,,10,R17,26,1F*3A
,1513187700142
NMEA,$PGLOR,2,SAT,4,3,G02,24,1F,R03,17,3B,G31,,30,R02,,30,R09,,30,G18,,30*27
,1513187700142
NMEA,$PGLOR,2,SAT,4,4,G15,,10,B14,,0,B11,,0*59
,1513187700142
NMEA,$PGLOR,1,SVC,GPS,3,1,11,012,UNKN,UNKN,020,UNKN,UNKN,025,UNKN,UNKN,029,UNKN,UNKN*7A
,1513187700142
NMEA,$PGLOR,1,SVC,GPS,3,2,11,002,UNKN,UNKN,005,UNKN,UNKN,021,CLIN,CLIN,024,UNKN,UNKN*76
,1513187700142
NMEA,$PGLOR,1,SVC,GPS,3,3,11,015,CLIN,CLIN,018,CLIN,CLIN,031,CLIN,CLIN*66
,1513187700142
NMEA,$PGLOR,1,SVC,GLO,2,1,08,056,UNKN,UNKN,058,CLIN,CLIN,059,UNKN,UNKN,062,UNKN,UNKN*78
,1513187700143
NMEA,$PGLOR,1,SVC,GLO,2,2,08,055,UNKN,UNKN,057,UNKN,UNKN,063,CLIN,CLIN,064,CLIN,CLIN*78
,1513187700143
NMEA,$PGLOR,1,SVC,BDS,1,1,02,091,CLIN,CLIN,094,CLIN,CLIN*63
,1513187700143
NMEA,$PGLOR,2,SIO,TxERR,0,RxERR,0,TxCNT,483,RxCNT,4387,MLFRMPKT,0,DTMS,1008,DTIN,21,47,DTOUT,99,961,HATMD,22*15
,1513187700143
NMEA,$PGLOR,1,HLA,175500.00,L,,Al,,A,,H,,,M,1,Ac,0,Gr,0,S,,,Sx,,,T,0,Tr,,Mn,,Ap,437,Ta,0,,*04
,1513187700143
NMEA,$PGLOR,2,CTX,175500.00,E,3,1,,,V,0,1,S,,,*7C
,1513187700143
NMEA,$PGLOR,4,PWR,mA,57.8,RFTm,1002,OscTm,1002,MeasTm,1002,UTC,175500.00,GNSSmA,58,CPUTm,198,COPTm,53,SrchTm,764,TrkTm,9,RpcT,1513187700143
NMEA,$GPGSV,3,1,11,25,68,178,24,12,56,079,30,29,45,202,21,20,42,031,21*7B
,1513187700143
NMEA,$GPGSV,3,2,11,21,34,307,22,05,33,100,18,24,18,003,,02,15,140,24*7C
,1513187700143
NMEA,$GPGSV,3,3,11,31,16,229,,18,03,342,,15,00,028,*44
,1513187700143
NMEA,$GLGSV,2,1,08,79,53,004,22,80,53,225,,82,43,201,21,83,28,266,18*6E
,1513187700143
NMEA,$GLGSV,2,2,08,81,18,148,27,67,14,059,18,66,11,109,,73,05,207,*68
,1513187700143
NMEA,$BDGSV,1,1,02,214,25,085,,211,14,126,*65
,1513187700144
NMEA,$GPGSA,A,3,02,05,12,20,21,25,29,,,,,,1.8,0.9,1.6*3C
,1513187700144
NMEA,$GNGSA,A,3,02,05,12,20,21,25,29,,,,,,1.8,0.9,1.6*22
,1513187700144
NMEA,$GNGSA,A,3,67,79,81,82,83,,,,,,,,1.8,0.9,1.6*2C
,1513187700144
NMEA,$QZGSA,A,3,,,,,,,,,,,,,1.8,0.9,1.6*29
,1513187700144
NMEA,$IMGSA,A,3,,,,,,,,,,,,,1.8,0.9,1.6*26
,1513187700144
NMEA,$BDGSA,A,3,,,,,,,,,,,,,1.8,0.9,1.6*24
,1513187700144
NMEA,$GAGSA,A,3,,,,,,,,,,,,,1.8,0.9,1.6*24
,1513187700144
NMEA,$PGLOR,1,FIX,1.0,1.0*20
,1513187700144
NMEA,$GPRMC,175500.00,A,2207.260919,S,05124.536733,W,000.0,,131217,,,A*79
,1513187700144
Fix,gps,-22.121015,-51.408946,437.788093,0.000000,8.000000,1513187700433
Nav,2,257,1,-1,3,34,-61,-69,30,26,88,43,52,63,-37,-62,32,9,-36,-16,-62,0,9,9,-111,42,4,-37,91,6,-7,108,65,27,-74,-118,-29,63,-24,-85,-53,8,-61,-41,-53
Nav,12,257,1,-1,3,34,-61,-69,30,26,88,43,52,0,15,109,-22,28,27,47,37,0,16,10,5,15,-101,-53,8,9,-65,-119,102,4,95,41,-128,63,-23,-1,-27,13,-68,-37,-33
Nav,29,257,1,-1,3,34,-61,-69,30,26,88,43,52,63,-8,56,-117,2,-27,114,-112,0,6,10,10,3,31,42,49,5,-24,72,-62,56,-53,-110,-28,63,-21,39,20,18,0,-61,68
Raw,154481747,173714000000,,,-1197222745285883265,0.0,11.953875048466166,,,0,2,0.0,39,323718920718294,58,24.11241340637207,861.1242109193272,0.2942010294835593,1,145027.0088449135,0.005335422698408365,,,,,0,,1,,
Raw,154481748,173714000000,,,-1197222745285883265,0.0,11.953875048466166,,,0,5,0.0,47,323718924209939,85,17.958059310913086,207.19161575659928,4.200757291999393,4,32361.488194329955,3.4028234663852886E38,,,,,0,,1,,
Raw,154481748,173714000000,,,-1197222745285883265,0.0,11.953875048466166,,,0,12,0.0,47,323718930272797,30,29.756811141967773,347.0797525561918,0.15351367478838918,1,58186.62962852523,0.0027857935056090355,,,,,0,,1,,
Raw,154481748,173714000000,,,-1197222745285883265,0.0,11.953875048466166,,,0,20,0.0,51,7535915,73,20.238569259643555,-240.36720627625073,4.201355598872883,4,-40531.96910172896,3.4028234663852886E38,,,,,0,,1,,
Raw,154481749,173714000000,,,-1197222745285883265,0.0,11.953875048466166,,,0,21,0.0,39,323718924491121,66,21.59724998474121,-370.2546301057246,4.200807883145794,4,-64171.653029479654,3.4028234663852886E38,,,,,0,,1,,
Raw,154481749,173714000000,,,-1197222745285883265,0.0,11.953875048466166,,,0,24,0.0,16,20872768,1000000000,7.0,819.8400631683339,2.99792458E8,4,115581.54241514958,3.4028234663852886E38,,,,,1,,1,,
Raw,154481749,173714000000,,,-1197222745285883265,0.0,11.953875048466166,,,0,25,0.0,47,323718930833813,57,24.372310638427734,-78.49873090456515,0.28386026572648326,4,-14521.243793315056,3.4028234663852886E38,,,,,0,,1,,
Raw,154481750,173714000000,,,-1197222745285883265,0.0,11.953875048466166,,,0,29,0.0,47,323718928169763,68,21.291202545166016,151.48946417539196,4.201469562086881,4,25698.093426795214,3.4028234663852886E38,,,,,0,,1,,
Raw,154481750,173714000000,,,-1197222745285883265,0.0,11.953875048466166,,,0,18,0.0,99,930965728,166,19.68619155883789,403.7367923217987,4.201972810858976,4,64399.90785110469,3.4028234663852886E38,,,,,1,,3,,
Raw,154481751,173714000000,,,-1197222745285883265,0.0,11.953875048466166,,,0,16,0.0,64,933011771,1000000000,7.0,-183.15983708517,2.99792458E8,4,-27301.005076678488,3.4028234663852886E38,,,,,1,,3,,
Raw,154481751,173714000000,,,-1197222745285883265,0.0,11.953875048466166,,,0,15,0.0,227,75300932922938,64,22.122360229492188,724.8106762423035,4.202324552461059,4,118879.6785133185,3.4028234663852886E38,,,,,0,,3,,
Raw,154481751,173714000000,,,-1197222745285883265,0.0,11.953875048466166,,,0,19,0.0,17,6778875,86,17.87807846069336,-3.671306566376094,4.201219269046792,4,-1137.9237912642648,3.4028234663852886E38,,,,,0,,3,,
Raw,154481752,173714000000,,,-1197222745285883265,0.0,11.953875048466166,,,0,17,0.0,227,75300923886913,97,25.76006507873535,658.6458580752674,0.24098328728395224,1,95154.45674946958,0.004334216006100178,,,,,0,,3,,
Raw,154481752,173714000000,,,-1197222745285883265,0.0,11.953875048466166,,,0,3,0.0,99,922641682,87,17.622684478759766,-325.1652783313291,4.200475312925505,4,-46374.129243253476,3.4028234663852886E38,,,,,0,,3,,
NMEA,$PGLOR,1,AGC,G,-22.4,R,-30.9,B,-31.0*5A
,1513187701147
NMEA,$GPGGA,175501.00,2207.260919,S,05124.536733,W,1,12,0.8,437.7,M,0.0,M,,*5F
,1513187701147
NMEA,$PGLOR,9,STA,175501.00,-0.941,0.000,608,1,8,0,P,F,L,0,C,3,S,00180002,18,5,R,000833F4,TPEF,19,173714,LC,,,*67
,1513187701147
NMEA,$PGLOR,1,UNC,175501.00,0.012,8.0,3.0,0.55,180.00,5.7,5.7,0.0*2B
,1513187701147
NMEA,$PGLOR,2,SAT,4,1,G25,24,1F,G12,30,1F,R15,22,3F,R16,,30,G29,21,1F,R18,20,33*22
,1513187701147
NMEA,$PGLOR,2,SAT,4,2,G20,20,1F,G21,22,1F,G05,18,1F,R19,18,3B,G24,,10,R17,26,1F*4E
,1513187701147
NMEA,$PGLOR,2,SAT,4,3,G02,24,1F,R03,18,3F,G31,,30,R02,,30,R09,,30,G18,,30*2C
,1513187701147
NMEA,$PGLOR,2,SAT,4,4,G15,,10,B14,,0,B11,,0*59
,1513187701147
NMEA,$PGLOR,1,SVC,GPS,3,1,11,012,UNKN,UNKN,020,UNKN,UNKN,025,UNKN,UNKN,029,UNKN,UNKN*7A
,1513187701147
NMEA,$PGLOR,1,SVC,GPS,3,2,11,002,UNKN,UNKN,005,UNKN,UNKN,021,CLIN,CLIN,024,UNKN,UNKN*76
,1513187701147
NMEA,$PGLOR,1,SVC,GPS,3,3,11,015,CLIN,CLIN,018,CLIN,CLIN,031,CLIN,CLIN*66
,1513187701147
NMEA,$PGLOR,1,SVC,GLO,2,1,08,056,UNKN,UNKN,058,CLIN,CLIN,059,UNKN,UNKN,062,UNKN,UNKN*78
,1513187701147
NMEA,$PGLOR,1,SVC,GLO,2,2,08,055,UNKN,UNKN,057,UNKN,UNKN,063,CLIN,CLIN,064,CLIN,CLIN*78
,1513187701148
NMEA,$PGLOR,1,SVC,BDS,1,1,02,091,CLIN,CLIN,094,CLIN,CLIN*63
,1513187701148
NMEA,$PGLOR,2,SIO,TxERR,0,RxERR,0,TxCNT,391,RxCNT,4304,MLFRMPKT,0,DTMS,1007,DTIN,25,41,DTOUT,100,956,HATMD,29*29
,1513187701148
NMEA,$PGLOR,1,HLA,175501.00,L,,Al,,A,,H,,,M,1,Ac,0,Gr,0,S,,,Sx,,,T,0,Tr,,Mn,,Ap,437,Ta,0,,*05
,1513187701148
NMEA,$PGLOR,2,CTX,175501.00,E,3,1,,,V,0,1,S,,,*7D
,1513187701148
NMEA,$PGLOR,4,PWR,mA,61.2,RFTm,1000,OscTm,1000,MeasTm,1000,UTC,175501.00,GNSSmA,61,CPUTm,220,COPTm,55,SrchTm,852,TrkTm,7,RpcT,1513187701148
NMEA,$GPGSV,3,1,11,25,68,178,24,12,56,079,30,29,45,202,21,20,42,031,21*7B
,1513187701148
NMEA,$GPGSV,3,2,11,21,34,307,22,05,33,100,18,24,18,003,,02,15,140,24*7C
,1513187701148
NMEA,$GPGSV,3,3,11,31,16,229,,18,03,342,,15,00,028,*44
,1513187701148
NMEA,$GLGSV,2,1,08,79,53,004,22,80,53,225,,82,43,201,21,83,28,266,18*6E
,1513187701148
NMEA,$GLGSV,2,2,08,81,18,148,27,67,14,059,18,66,11,109,,73,05,207,*68
,1513187701148
NMEA,$BDGSV,1,1,02,214,25,085,,211,14,126,*65
,1513187701148
NMEA,$GPGSA,A,3,02,05,12,20,21,25,29,,,,,,1.8,1.0,1.5*37
,1513187701148
NMEA,$GNGSA,A,3,02,05,12,20,21,25,29,,,,,,1.8,1.0,1.5*29
,1513187701148
NMEA,$GNGSA,A,3,67,79,81,82,83,,,,,,,,1.8,1.0,1.5*27
,1513187701148
NMEA,$QZGSA,A,3,,,,,,,,,,,,,1.8,1.0,1.5*22
,1513187701148
NMEA,$IMGSA,A,3,,,,,,,,,,,,,1.8,1.0,1.5*2D
,1513187701148
NMEA,$BDGSA,A,3,,,,,,,,,,,,,1.8,1.0,1.5*2F
,1513187701148
NMEA,$GAGSA,A,3,,,,,,,,,,,,,1.8,1.0,1.5*2F
,1513187701148
NMEA,$PGLOR,1,FIX,1.0,1.0*20
,1513187701148
NMEA,$GPRMC,175501.00,A,2207.260919,S,05124.536733,W,000.0,,131217,,,A*78
,1513187701148
Fix,gps,-22.121015,-51.408946,437.775672,0.000000,8.000000,1513187701435
Nav,104,769,1,1,1,8,83,112,-114,126,52,11,83,-27,97,-24
NMEA,$PGLOR,1,AGC,G,-23.0,R,-31.5,B,-31.4*56
,1513187702149
Raw,154482756,174714000000,,,-1197222745285882656,0.0,11.744780352637019,,,0,2,0.0,47,323719920715447,62,23.531827926635742,861.5058662674696,0.3142800896681026,4,145888.12028135298,3.4028234663852886E38,,,,,0,,1,,
Raw,154482757,174714000000,,,-1197222745285882656,0.0,11.744780352637019,,,0,5,0.0,47,323719924209264,86,17.808452606201172,207.4381171234005,4.200757291999393,4,32567.4030717616,3.4028234663852886E38,,,,,0,,1,,
Raw,154482757,174714000000,,,-1197222745285882656,0.0,11.744780352637019,,,0,12,0.0,47,323719930271618,37,28.097042083740234,347.11359643551896,0.18544911961033173,1,58533.77629766574,0.0033723865635693073,,,,,0,,1,,
Raw,154482757,174714000000,,,-1197222745285882656,0.0,11.744780352637019,,,0,20,0.0,51,7536743,81,18.77336883544922,-240.0444113305232,4.201355598872883,4,-40771.37865925988,3.4028234663852886E38,,,,,0,,1,,
Raw,154482757,174714000000,,,-1197222745285882656,0.0,11.744780352637019,,,0,21,0.0,39,323719924492391,73,20.40540885925293,-370.9144664640062,4.200808149414986,4,-64542.26540571018,3.4028234663852886E38,,,,,0,,1,,
Raw,154482757,174714000000,,,-1197222745285882656,0.0,11.744780352637019,,,0,24,0.0,16,20870029,1000000000,7.0,819.4687688869744,2.99792458E8,4,116401.14823196194,3.4028234663852886E38,,,,,1,,1,,
Raw,154482758,174714000000,,,-1197222745285882656,0.0,11.744780352637019,,,0,25,0.0,47,323719930834026,53,24.999908447265625,-78.32209005302155,0.26420929983470987,1,-14599.623708612324,0.004817192442715168,,,,,0,,1,,
Raw,154482758,174714000000,,,-1197222745285882656,0.0,11.744780352637019,,,0,29,0.0,47,323719928169217,71,20.712894439697266,151.39832768664996,4.201469562086881,4,25849.49410131158,3.4028234663852886E38,,,,,0,,1,,
Raw,154482758,174714000000,,,-1197222745285882656,0.0,11.744780352637019,,,0,18,0.0,99,1930964400,166,17.444515228271484,403.57357143751096,4.201972544589784,4,64803.130887461535,3.4028234663852886E38,,,,,1,,3,,
Raw,154482758,174714000000,,,-1197222745285882656,0.0,11.744780352637019,,,0,16,0.0,64,1933012379,1000000000,7.2244110107421875,-183.36978501735052,2.99792458E8,4,-27483.599204989823,3.4028234663852886E38,,,,,1,,3,,
Raw,154482759,174714000000,,,-1197222745285882656,0.0,11.744780352637019,,,0,15,0.0,227,75301932920762,68,21.21915054321289,724.965206100178,4.2023242861918675,4,119604.27984154627,3.4028234663852886E38,,,,,0,,3,,
Raw,154482759,174714000000,,,-1197222745285882656,0.0,11.744780352637019,,,0,19,0.0,17,6779060,85,17.972965240478516,-3.3719430432387973,4.201219535315984,4,-1141.271083639313,3.4028234663852886E38,,,,,0,,3,,
Raw,154482759,174714000000,,,-1197222745285882656,0.0,11.744780352637019,,,0,17,0.0,227,75301923884669,99,25.530078887939453,658.6545150192242,0.24743018030877062,1,95813.09112093366,0.0044505107216537,,,,,0,,3,,
Raw,154482759,174714000000,,,-1197222745285882656,0.0,11.744780352637019,,,0,3,0.0,99,1922642747,78,19.31252098083496,-325.0638148582607,4.200475312925505,4,-46698.99318818452,3.4028234663852886E38,,,,,0,,3,,
NMEA,$GPGGA,175502.00,2207.260919,S,05124.536733,W,1,12,0.8,437.7,M,0.0,M,,*5C
,1513187702149
NMEA,$PGLOR,9,STA,175502.00,-0.941,0.000,608,1,8,0,P,F,L,0,C,3,S,00180002,18,5,R,000833F4,TPEF,19,174714,LC,,,*63
,1513187702150
NMEA,$PGLOR,1,UNC,175502.00,0.012,8.0,3.0,0.95,180.00,5.7,5.7,0.0*24
,1513187702150
NMEA,$PGLOR,2,SAT,4,1,G25,25,1F,G12,28,1F,R16,07,30,R15,21,3F,G29,21,1F,R18,17,3B*5B
,1513187702150
NMEA,$PGLOR,2,SAT,4,2,G20,19,13,G21,20,1F,G05,18,1F,R19,18,3F,G24,,10,R17,26,1F*37
,1513187702150
NMEA,$PGLOR,2,SAT,4,3,G02,24,1F,R03,19,3F,G31,,30,R02,,30,R09,,30,G18,,30*2D
,1513187702150
NMEA,$PGLOR,2,SAT,4,4,G15,,10,B14,,0,B11,,0*59
,1513187702150
NMEA,$PGLOR,1,SVC,GPS,3,1,11,012,UNKN,UNKN,020,UNKN,UNKN,025,UNKN,UNKN,029,UNKN,UNKN*7A
,1513187702150
NMEA,$PGLOR,1,SVC,GPS,3,2,11,002,UNKN,UNKN,005,UNKN,UNKN,021,CLIN,CLIN,024,UNKN,UNKN*76
,1513187702150
NMEA,$PGLOR,1,SVC,GPS,3,3,11,015,CLIN,CLIN,018,CLIN,CLIN,031,CLIN,CLIN*66
,1513187702150
NMEA,$PGLOR,1,SVC,GLO,2,1,08,056,CLIN,CLIN,058,UNKN,UNKN,059,UNKN,UNKN,062,UNKN,UNKN*78
,1513187702150
NMEA,$PGLOR,1,SVC,GLO,2,2,08,055,UNKN,UNKN,057,UNKN,UNKN,063,CLIN,CLIN,064,CLIN,CLIN*78
,1513187702150
NMEA,$PGLOR,1,SVC,BDS,1,1,02,091,CLIN,CLIN,094,CLIN,CLIN*63
,1513187702150
NMEA,$PGLOR,2,SIO,TxERR,0,RxERR,0,TxCNT,392,RxCNT,4404,MLFRMPKT,0,DTMS,1002,DTIN,33,48,DTOUT,101,950,HATMD,31*28
,1513187702150
NMEA,$PGLOR,1,HLA,175502.00,L,,Al,,A,,H,,,M,1,Ac,0,Gr,0,S,,,Sx,,,T,0,Tr,,Mn,,Ap,437,Ta,0,,*06
,1513187702150
NMEA,$PGLOR,2,CTX,175502.00,E,3,1,,,V,0,1,S,,,*7E
,1513187702150
NMEA,$PGLOR,4,PWR,mA,61.2,RFTm,999,OscTm,999,MeasTm,999,UTC,175502.00,GNSSmA,61,CPUTm,207,COPTm,53,SrchTm,852,TrkTm,7,RpcTm,8,1513187702150
NMEA,$GPGSV,3,1,11,25,68,178,25,12,56,079,30,29,45,202,21,20,42,031,21*7A
,1513187702150
NMEA,$GPGSV,3,2,11,21,34,307,21,05,33,100,18,24,18,003,,02,15,140,24*7F
,1513187702150
NMEA,$GPGSV,3,3,11,31,16,229,,18,03,342,,15,00,028,*44
,1513187702150
NMEA,$GLGSV,2,1,08,80,54,225,08,79,53,004,22,82,43,201,20,83,28,266,18*60
,1513187702150
NMEA,$GLGSV,2,2,08,81,18,148,27,67,14,059,19,66,11,109,,73,05,207,*69
,1513187702150
NMEA,$BDGSV,1,1,02,214,25,085,,211,14,126,*65
,1513187702150
NMEA,$GPGSA,A,3,02,05,12,20,21,25,29,,,,,,1.7,0.9,1.4*31
,1513187702150
NMEA,$GNGSA,A,3,02,05,12,20,21,25,29,,,,,,1.7,0.9,1.4*2F
,1513187702150
NMEA,$GNGSA,A,3,67,79,81,82,83,,,,,,,,1.7,0.9,1.4*21
,1513187702150
NMEA,$QZGSA,A,3,,,,,,,,,,,,,1.7,0.9,1.4*24
,1513187702151
NMEA,$IMGSA,A,3,,,,,,,,,,,,,1.7,0.9,1.4*2B
,1513187702151
NMEA,$BDGSA,A,3,,,,,,,,,,,,,1.7,0.9,1.4*29
,1513187702151
NMEA,$GAGSA,A,3,,,,,,,,,,,,,1.7,0.9,1.4*29
,1513187702151
NMEA,$PGLOR,1,FIX,1.0,1.0*20
,1513187702151
NMEA,$GPRMC,175502.00,A,2207.260919,S,05124.536733,W,000.0,,131217,,,A*7B
,1513187702151
Fix,gps,-22.121015,-51.408946,437.774650,0.000000,8.000000,1513187702436
NMEA,$PGLOR,1,AGC,G,-22.7,R,-31.4,B,-31.0*55
,1513187703143
NMEA,$GPGGA,175503.00,2207.260919,S,05124.536733,W,1,12,0.6,437.7,M,0.0,M,,*53
,1513187703143
NMEA,$PGLOR,9,STA,175503.00,-0.941,0.000,609,1,6,0,P,F,L,0,C,3,S,00180002,18,5,R,000833F4,TPEF,19,175714,LC,,,*6C
,1513187703143
Raw,154483771,175714000000,,,-1197222745285882049,0.0,11.685295090737469,,,0,2,0.0,47,323720920712588,61,23.692546844482422,861.085084259239,0.30858608942431376,1,146749.19230414456,0.005599666852504015,,,,,0,,1,,
Raw,154483772,175714000000,,,-1197222745285882049,0.0,11.685295090737469,,,0,5,0.0,47,323720924208516,90,17.028568267822266,207.13594206386927,4.200757025730201,4,32774.788511824925,3.4028234663852886E38,,,,,0,,1,,
Raw,154483772,175714000000,,,-1197222745285882049,0.0,11.685295090737469,,,0,12,0.0,47,323720930270507,40,27.434093475341797,347.2147872489352,0.2000109490106493,1,58880.99500016596,0.003639860777184367,,,,,0,,1,,
Raw,154483772,175714000000,,,-1197222745285882049,0.0,11.685295090737469,,,0,20,0.0,51,7537612,81,18.856632232666016,-239.6517473489239,4.201355865142075,4,-41010.7675003158,3.4028234663852886E38,,,,,0,,1,,
Raw,154483773,175714000000,,,-1197222745285882049,0.0,11.685295090737469,,,0,21,0.0,39,323720924493581,75,19.907615661621094,-371.61339539991945,4.200808415684177,4,-64912.864165145525,3.4028234663852886E38,,,,,0,,1,,
Raw,154483773,175714000000,,,-1197222745285882049,0.0,11.685295090737469,,,0,24,0.0,16,20867298,1000000000,7.0,819.6543819451977,2.99792458E8,4,117221.02506871507,3.4028234663852886E38,,,,,0,,1,,
Raw,154483774,175714000000,,,-1197222745285882049,0.0,11.685295090737469,,,0,25,0.0,47,323720930834224,53,24.862346649169922,-78.33998334269603,0.26839593354311464,1,-14677.941311949467,0.004894092213362455,,,,,0,,1,,
Raw,154483774,175714000000,,,-1197222745285882049,0.0,11.685295090737469,,,0,29,0.0,47,323720928168831,72,20.548620223999023,151.42849066067265,4.20146929581769,4,26000.77272356726,3.4028234663852886E38,,,,,0,,1,,
Raw,154483774,175714000000,,,-1197222745285882049,0.0,11.685295090737469,,,0,18,0.0,99,2930963022,97,15.722860336303711,403.4110662848102,4.201972278320593,4,65206.42387196481,3.4028234663852886E38,,,,,0,,3,,
Raw,154483775,175714000000,,,-1197222745285882049,0.0,11.685295090737469,,,0,16,0.0,64,2933012956,1000000000,8.03311538696289,-182.77952799406023,2.99792458E8,4,-27667.091723284106,3.4028234663852886E38,,,,,1,,3,,
Raw,154483775,175714000000,,,-1197222745285882049,0.0,11.685295090737469,,,0,15,0.0,227,75302932918102,68,21.255462646484375,724.5233611338163,4.202323753653484,4,120328.94884480406,3.4028234663852886E38,,,,,0,,3,,
Raw,154483775,175714000000,,,-1197222745285882049,0.0,11.685295090737469,,,0,19,0.0,17,6779002,82,18.58173370361328,-3.1161374320760356,4.201219269046792,4,-1144.683000601176,3.4028234663852886E38,,,,,0,,3,,
Raw,154483776,175714000000,,,-1197222745285882049,0.0,11.685295090737469,,,0,17,0.0,227,75302923882477,104,25.16202163696289,658.5637875199604,0.2581094554174729,1,96471.67443992573,0.004643149673938751,,,,,0,,3,,
Raw,154483776,175714000000,,,-1197222745285882049,0.0,11.685295090737469,,,0,3,0.0,99,2922643759,79,19.134418487548828,-325.0293574947161,4.200475579194697,4,-47023.98266136622,3.4028234663852886E38,,,,,0,,3,,
NMEA,$PGLOR,1,UNC,175503.00,0.012,6.0,3.0,0.66,98.42,4.2,4.2,0.0*19
,1513187703143
NMEA,$PGLOR,2,SAT,4,1,G25,25,1F,G12,27,1F,R16,08,30,R15,21,3F,G29,21,1F,R18,16,3B*5A
,1513187703143
NMEA,$PGLOR,2,SAT,4,2,G20,19,1F,G21,20,13,G05,17,1B,R19,19,3F,G24,,10,R17,25,1F*3E
,1513187703143
NMEA,$PGLOR,2,SAT,4,3,G02,24,1F,R03,19,3B,G31,,30,R02,,30,R09,,30,G18,,30*29
,1513187703143
NMEA,$PGLOR,2,SAT,4,4,G15,,10,B14,,0,B11,,0*59
,1513187703143
NMEA,$PGLOR,1,SVC,GPS,3,1,11,012,UNKN,UNKN,020,UNKN,UNKN,025,UNKN,UNKN,029,UNKN,UNKN*7A
,1513187703143
NMEA,$PGLOR,1,SVC,GPS,3,2,11,002,UNKN,UNKN,005,UNKN,UNKN,021,CLIN,CLIN,024,UNKN,UNKN*76
,1513187703143
NMEA,$PGLOR,1,SVC,GPS,3,3,11,015,CLIN,CLIN,018,CLIN,CLIN,031,CLIN,CLIN*66
,1513187703143
NMEA,$PGLOR,1,SVC,GLO,2,1,08,056,CLIN,CLIN,058,UNKN,UNKN,059,UNKN,UNKN,062,UNKN,UNKN*78
,1513187703143
NMEA,$PGLOR,1,SVC,GLO,2,2,08,055,UNKN,UNKN,057,UNKN,UNKN,063,CLIN,CLIN,064,CLIN,CLIN*78
,1513187703143
NMEA,$PGLOR,1,SVC,BDS,1,1,02,091,CLIN,CLIN,094,CLIN,CLIN*63
,1513187703144
NMEA,$PGLOR,2,SIO,TxERR,0,RxERR,0,TxCNT,432,RxCNT,4367,MLFRMPKT,0,DTMS,994,DTIN,36,49,DTOUT,100,953,HATMD,25*13
,1513187703144
NMEA,$PGLOR,1,HLA,175503.00,L,,Al,,A,,H,,,M,1,Ac,0,Gr,0,S,,,Sx,,,T,0,Tr,,Mn,,Ap,437,Ta,0,,*07
,1513187703144
NMEA,$PGLOR,2,CTX,175503.00,E,3,1,,,V,0,1,S,,,*7F
,1513187703144
NMEA,$PGLOR,4,PWR,mA,59.9,RFTm,1001,OscTm,1001,MeasTm,1001,UTC,175503.00,GNSSmA,60,CPUTm,213,COPTm,49,SrchTm,822,TrkTm,8,RpcT,1513187703144
NMEA,$GPGSV,3,1,11,25,68,178,25,12,56,079,29,29,45,202,21,20,42,031,21*72
,1513187703144
NMEA,$GPGSV,3,2,11,21,35,307,21,05,33,100,18,24,18,003,,02,15,140,24*7E
,1513187703144
NMEA,$GPGSV,3,3,11,31,16,229,,18,03,342,,15,00,028,*44
,1513187703144
NMEA,$GLGSV,2,1,08,80,54,225,08,79,53,004,22,82,43,201,20,83,28,266,19*61
,1513187703144
NMEA,$GLGSV,2,2,08,81,18,148,27,67,14,059,19,66,11,109,,73,05,207,*69
,1513187703144
NMEA,$BDGSV,1,1,02,214,25,085,,211,14,126,*65
,1513187703144
NMEA,$GPGSA,A,3,02,05,12,20,21,25,29,,,,,,2.1,1.1,1.8*31
,1513187703144
NMEA,$GNGSA,A,3,02,05,12,20,21,25,29,,,,,,2.1,1.1,1.8*2F
,1513187703144
NMEA,$GNGSA,A,3,67,79,81,82,83,,,,,,,,2.1,1.1,1.8*21
,1513187703144
NMEA,$QZGSA,A,3,,,,,,,,,,,,,2.1,1.1,1.8*24
,1513187703144
NMEA,$IMGSA,A,3,,,,,,,,,,,,,2.1,1.1,1.8*2B
,1513187703144
NMEA,$BDGSA,A,3,,,,,,,,,,,,,2.1,1.1,1.8*29
,1513187703144
NMEA,$GAGSA,A,3,,,,,,,,,,,,,2.1,1.1,1.8*29
,1513187703144
NMEA,$PGLOR,1,FIX,1.0,1.0*20
,1513187703144
NMEA,$GPRMC,175503.00,A,2207.260919,S,05124.536733,W,000.0,,131217,,,A*7A
,1513187703144
Fix,gps,-22.121015,-51.408946,437.768258,0.000000,6.000000,1513187703438
Nav,104,769,1,1,2,16,-45,1,115,-48,24,1,14,127,97,-56
NMEA,$PGLOR,1,AGC,G,-23.5,R,-31.4,B,-31.5*53
,1513187704137
NMEA,$GPGGA,175504.00,2207.260919,S,05124.536733,W,1,12,0.8,437.7,M,0.0,M,,*5A
,1513187704137
NMEA,$PGLOR,9,STA,175504.00,-0.941,0.000,608,1,8,0,P,F,L,0,C,3,S,00180002,18,5,R,000833F4,TPEF,19,176714,LC,,,*67
,1513187704137
Raw,154484773,176714000000,,,-1197222745285881442,0.0,11.56775288762037,,,0,2,0.0,47,323721920709676,63,23.439224243164062,860.9727484825398,0.3176076890389825,4,147610.25989071067,3.4028234663852886E38,,,,,0,,1,,
Raw,154484773,176714000000,,,-1197222745285881442,0.0,11.56775288762037,,,0,5,0.0,47,323721924207817,92,16.548046112060547,207.50851443734837,4.200757025730201,4,32982.245234452384,3.4028234663852886E38,,,,,0,,1,,
Raw,154484774,176714000000,,,-1197222745285881442,0.0,11.56775288762037,,,0,12,0.0,47,323721930269339,38,27.839372634887695,347.4195205652677,0.19097691795309846,1,59228.3081416463,0.0034739284310489893,,,,,0,,1,,
Raw,154484774,176714000000,,,-1197222745285881442,0.0,11.56775288762037,,,0,20,0.0,51,7538298,86,17.866519927978516,-239.32346512769618,4.201355865142075,4,-41250.09354720169,3.4028234663852886E38,,,,,0,,1,,
Raw,154484775,176714000000,,,-1197222745285881442,0.0,11.56775288762037,,,0,21,0.0,39,323721924494814,78,19.315345764160156,-370.7656965412841,4.200808415684177,4,-65283.42282053374,3.4028234663852886E38,,,,,0,,1,,
Raw,154484775,176714000000,,,-1197222745285881442,0.0,11.56775288762037,,,0,24,0.0,16,20864566,1000000000,7.0,819.8400631683339,2.99792458E8,4,118040.5788508321,3.4028234663852886E38,,,,,0,,1,,
Raw,154484775,176714000000,,,-1197222745285881442,0.0,11.56775288762037,,,0,25,0.0,47,323721930834475,56,24.47223472595215,-78.14183646108654,0.2806358123836934,1,-14756.187574409807,0.005118913017213345,,,,,0,,1,,
Raw,154484776,176714000000,,,-1197222745285881442,0.0,11.56775288762037,,,0,29,0.0,47,323721928168229,72,20.608333587646484,151.35761619233347,4.20146929581769,4,26152.119250137734,3.4028234663852886E38,,,,,0,,1,,
Raw,154484776,176714000000,,,-1197222745285881442,0.0,11.56775288762037,,,0,18,0.0,99,3930961593,96,15.918182373046875,403.4500225326158,4.201972012051401,4,65609.43729071047,3.4028234663852886E38,,,,,0,,3,,
Raw,154484777,176714000000,,,-1197222745285881442,0.0,11.56775288762037,,,0,16,0.0,64,3933013416,1000000000,8.408834457397461,-182.73118202948262,2.99792458E8,4,-27849.196562060886,3.4028234663852886E38,,,,,1,,3,,
Raw,154484777,176714000000,,,-1197222745285881442,0.0,11.56775288762037,,,0,15,0.0,227,75303932915746,74,20.04608154296875,725.142980193401,4.202323221115101,4,121053.80590494722,3.4028234663852886E38,,,,,0,,3,,
Raw,154484777,176714000000,,,-1197222745285881442,0.0,11.56775288762037,,,0,19,0.0,17,6778925,85,17.934551239013672,-3.0352810642827333,4.201219269046792,4,-1148.0521551901825,3.4028234663852886E38,,,,,0,,3,,
Raw,154484778,176714000000,,,-1197222745285881442,0.0,11.56775288762037,,,0,17,0.0,227,75303923880194,106,25.009193420410156,658.5400661302206,0.2626782686249237,1,97130.20503327339,0.004725568927824497,,,,,0,,3,,
Raw,154484778,176714000000,,,-1197222745285881442,0.0,11.56775288762037,,,0,3,0.0,99,3922644995,78,19.27927017211914,-324.7592199443163,4.200475845463888,4,-47348.96728316958,3.4028234663852886E38,,,,,0,,3,,
NMEA,$PGLOR,1,UNC,175504.00,0.012,8.0,3.0,0.62,180.00,5.7,5.7,0.0*2A
,1513187704137
NMEA,$PGLOR,2,SAT,4,1,G25,24,1F,G12,28,1F,R16,08,30,R15,20,3F,G29,21,1F,R18,16,3F*51
,1513187704137
NMEA,$PGLOR,2,SAT,4,2,G20,18,1B,G21,19,1B,G05,17,1B,R19,18,33,G24,,10,R17,25,1F*34
,1513187704137
NMEA,$PGLOR,2,SAT,4,3,G02,23,1F,R03,19,3F,G31,,30,R02,,30,R09,,30,G18,,30*2A
,1513187704137
NMEA,$PGLOR,2,SAT,4,4,G15,,10,B14,,0,B11,,0*59
,1513187704137
NMEA,$PGLOR,1,SVC,GPS,3,1,11,012,UNKN,UNKN,020,UNKN,UNKN,025,UNKN,UNKN,029,UNKN,UNKN*7A
,1513187704137
NMEA,$PGLOR,1,SVC,GPS,3,2,11,002,UNKN,UNKN,005,UNKN,UNKN,021,CLIN,CLIN,024,UNKN,UNKN*76
,1513187704137
NMEA,$PGLOR,1,SVC,GPS,3,3,11,015,CLIN,CLIN,018,CLIN,CLIN,031,CLIN,CLIN*66
,1513187704137
NMEA,$PGLOR,1,SVC,GLO,2,1,08,056,CLIN,CLIN,058,UNKN,UNKN,059,UNKN,UNKN,062,UNKN,UNKN*78
,1513187704137
NMEA,$PGLOR,1,SVC,GLO,2,2,08,055,UNKN,UNKN,057,UNKN,UNKN,063,CLIN,CLIN,064,CLIN,CLIN*78
,1513187704137
NMEA,$PGLOR,1,SVC,BDS,1,1,02,091,CLIN,CLIN,094,CLIN,CLIN*63
,1513187704137
NMEA,$PGLOR,2,SIO,TxERR,0,RxERR,0,TxCNT,432,RxCNT,4333,MLFRMPKT,0,DTMS,994,DTIN,26,42,DTOUT,101,955,HATMD,19*10
,1513187704137
NMEA,$PGLOR,1,HLA,175504.00,L,,Al,,A,,H,,,M,1,Ac,0,Gr,0,S,,,Sx,,,T,0,Tr,,Mn,,Ap,437,Ta,0,,*00
,1513187704137
NMEA,$PGLOR,2,CTX,175504.00,E,3,1,,,V,0,1,S,,,*78
,1513187704137
NMEA,$PGLOR,4,PWR,mA,61.1,RFTm,1000,OscTm,1000,MeasTm,1000,UTC,175504.00,GNSSmA,61,CPUTm,192,COPTm,52,SrchTm,852,TrkTm,7,RpcT,1513187704139
NMEA,$GPGSV,3,1,11,25,68,178,25,12,56,079,29,29,45,202,21,20,42,031,20*73
,1513187704139
NMEA,$GPGSV,3,2,11,21,35,307,21,05,33,100,18,24,18,003,,02,15,140,24*7E
,1513187704139
NMEA,$GPGSV,3,3,11,31,16,229,,18,03,342,,15,00,028,*44
,1513187704139
NMEA,$GLGSV,2,1,08,80,54,225,08,79,53,004,22,82,43,201,19,83,28,266,19*6B
,1513187704139
NMEA,$GLGSV,2,2,08,81,18,148,26,67,14,059,19,66,11,109,,73,05,207,*68
,1513187704139
NMEA,$BDGSV,1,1,02,214,25,085,,211,14,126,*65
,1513187704139
NMEA,$GPGSA,A,3,02,05,12,20,21,25,29,,,,,,2.7,1.7,2.1*3B
,1513187704140
NMEA,$GNGSA,A,3,02,05,12,20,21,25,29,,,,,,2.7,1.7,2.1*25
,1513187704140
NMEA,$GNGSA,A,3,67,79,81,82,83,,,,,,,,2.7,1.7,2.1*2B
,1513187704140
NMEA,$QZGSA,A,3,,,,,,,,,,,,,2.7,1.7,2.1*2E
,1513187704140
NMEA,$IMGSA,A,3,,,,,,,,,,,,,2.7,1.7,2.1*21
,1513187704140
NMEA,$BDGSA,A,3,,,,,,,,,,,,,2.7,1.7,2.1*23
,1513187704140
NMEA,$GAGSA,A,3,,,,,,,,,,,,,2.7,1.7,2.1*23
,1513187704140
NMEA,$PGLOR,1,FIX,1.0,1.0*20
,1513187704140
NMEA,$GPRMC,175504.00,A,2207.260919,S,05124.536733,W,000.0,,131217,,,A*7D
,1513187704140
Fix,gps,-22.121015,-51.408946,437.773771,0.000000,8.000000,1513187704441
NMEA,$PGLOR,1,AGC,G,-22.8,R,-31.5,B,-30.6*5C
,1513187705142
NMEA,$GPGGA,175505.00,2207.260919,S,05124.536733,W,1,12,0.8,437.7,M,0.0,M,,*5B
,1513187705142
Raw,154485755,177714000000,,,-1197222745285880834,0.0,11.460730632154373,,,0,2,0.0,47,323722920706801,61,23.729156494140625,861.055159862412,0.3073027717718235,1,148471.32113359138,0.005576113238930702,,,,,0,,1,,
Raw,154485755,177714000000,,,-1197222745285880834,0.0,11.460730632154373,,,0,5,0.0,47,323722924207129,91,16.918407440185547,207.31582926939666,4.20075675946101,4,33189.66722500632,3.4028234663852886E38,,,,,0,,1,,
Raw,154485755,177714000000,,,-1197222745285880834,0.0,11.460730632154373,,,0,12,0.0,47,323722930268188,32,29.229522705078125,347.4719734658563,0.16300512303343317,1,59575.66936879754,0.0029601475689560175,,,,,0,,1,,
Raw,154485756,177714000000,,,-1197222745285880834,0.0,11.460730632154373,,,0,20,0.0,51,7539108,78,19.272443771362305,-239.4404190772542,4.201356131411266,4,-41489.40457987439,3.4028234663852886E38,,,,,0,,1,,
Raw,154485756,177714000000,,,-1197222745285880834,0.0,11.460730632154373,,,0,21,0.0,39,323722924496091,69,21.168027877807617,-370.79384865037196,4.200808681953369,4,-65653.91962257853,3.4028234663852886E38,,,,,0,,1,,
Raw,154485756,177714000000,,,-1197222745285880834,0.0,11.460730632154373,,,0,24,0.0,16,20861835,1000000000,7.0,819.4687688869744,2.99792458E8,4,118860.147548822,3.4028234663852886E38,,,,,0,,1,,
Raw,154485757,177714000000,,,-1197222745285880834,0.0,11.460730632154373,,,0,25,0.0,47,323722930834785,58,24.094024658203125,-78.15874988013599,0.29303883102959105,4,-14834.389859062223,3.4028234663852886E38,,,,,0,,1,,
Raw,154485757,177714000000,,,-1197222745285880834,0.0,11.460730632154373,,,0,29,0.0,47,323722928167756,71,20.751516342163086,151.4214867158572,4.20146929581769,4,26303.47240293045,3.4028234663852886E38,,,,,0,,1,,
Raw,154485757,177714000000,,,-1197222745285880834,0.0,11.460730632154373,,,0,18,0.0,99,4930960105,83,18.30377197265625,403.530286717727,4.20197174578221,4,66012.47774490376,3.4028234663852886E38,,,,,0,,3,,
Raw,154485757,177714000000,,,-1197222745285880834,0.0,11.460730632154373,,,0,16,0.0,64,4933013638,1000000000,8.619592666625977,-182.9136424604775,2.99792458E8,4,-28031.9917189176,3.4028234663852886E38,,,,,0,,3,,
Raw,154485757,177714000000,,,-1197222745285880834,0.0,11.460730632154373,,,0,15,0.0,227,75304932913288,72,20.615455627441406,724.1525440068481,4.202322688576718,4,121778.75930274396,3.4028234663852886E38,,,,,0,,3,,
Raw,154485758,177714000000,,,-1197222745285880834,0.0,11.460730632154373,,,0,19,0.0,17,6778933,85,17.964984893798828,-3.000045129621979,4.201219269046792,4,-1151.3947817832952,3.4028234663852886E38,,,,,0,,3,,
Raw,154485758,177714000000,,,-1197222745285880834,0.0,11.460730632154373,,,0,17,0.0,227,75304923878070,98,25.670806884765625,658.5365897196552,0.2434636846545083,1,97788.70149479547,0.004378984682261944,,,,,0,,3,,
Raw,154485758,177714000000,,,-1197222745285880834,0.0,11.460730632154373,,,0,3,0.0,99,4922646055,78,19.317245483398438,-324.56368889124496,4.20047611173308,4,-47673.78704729132,3.4028234663852886E38,,,,,0,,3,,
NMEA,$PGLOR,9,STA,175505.00,-0.941,0.000,608,1,8,0,P,F,L,0,C,3,S,00180002,18,5,R,000833F4,TPEF,19,177714,LC,,,*67
,1513187705142
NMEA,$PGLOR,1,UNC,175505.00,0.011,8.0,3.0,0.62,180.00,5.7,5.7,0.0*28
,1513187705142
NMEA,$PGLOR,2,SAT,4,1,G25,24,1F,G12,29,1F,R16,09,30,R15,21,37,G29,21,1F,R18,18,3B*2B
,1513187705142
NMEA,$PGLOR,2,SAT,4,2,G20,19,1B,G21,21,1B,G05,17,1B,R19,18,3B,G24,,10,R17,26,1F*4C
,1513187705143
NMEA,$PGLOR,2,SAT,4,3,G02,24,1F,R03,19,3F,G31,,30,R02,,30,R09,,30,G18,,30*2D
,1513187705143
NMEA,$PGLOR,2,SAT,4,4,G15,,10,B14,,0,B11,,0*59
,1513187705143
NMEA,$PGLOR,1,SVC,GPS,3,1,11,012,UNKN,UNKN,020,UNKN,UNKN,025,UNKN,UNKN,029,UNKN,UNKN*7A
,1513187705143
NMEA,$PGLOR,1,SVC,GPS,3,2,11,002,UNKN,UNKN,005,UNKN,UNKN,021,CLIN,CLIN,024,UNKN,UNKN*76
,1513187705143
NMEA,$PGLOR,1,SVC,GPS,3,3,11,015,CLIN,CLIN,018,CLIN,CLIN,031,CLIN,CLIN*66
,1513187705143
NMEA,$PGLOR,1,SVC,GLO,2,1,08,056,CLIN,CLIN,058,UNKN,UNKN,059,UNKN,UNKN,062,UNKN,UNKN*78
,1513187705143
NMEA,$PGLOR,1,SVC,GLO,2,2,08,055,UNKN,UNKN,057,UNKN,UNKN,063,CLIN,CLIN,064,CLIN,CLIN*78
,1513187705143
NMEA,$PGLOR,1,SVC,BDS,1,1,02,091,CLIN,CLIN,094,CLIN,CLIN*63
,1513187705143
NMEA,$PGLOR,2,SIO,TxERR,0,RxERR,0,TxCNT,391,RxCNT,4391,MLFRMPKT,0,DTMS,1005,DTIN,25,36,DTOUT,101,961,HATMD,24*2F
,1513187705143
NMEA,$PGLOR,1,HLA,175505.00,L,,Al,,A,,H,,,M,1,Ac,0,Gr,0,S,,,Sx,,,T,0,Tr,,Mn,,Ap,437,Ta,0,,*01
,1513187705143
NMEA,$PGLOR,2,CTX,175505.00,E,3,1,,,V,0,1,S,,,*79
,1513187705143
NMEA,$PGLOR,4,PWR,mA,61.3,RFTm,998,OscTm,998,MeasTm,998,UTC,175505.00,GNSSmA,61,CPUTm,202,COPTm,58,SrchTm,852,TrkTm,6,RpcTm,8,1513187705143
NMEA,$GPGSV,3,1,11,25,68,178,25,12,56,079,29,29,45,202,21,20,42,031,20*73
,1513187705143
NMEA,$GPGSV,3,2,11,21,35,307,21,05,33,100,18,24,18,003,,02,15,140,24*7E
,1513187705143
NMEA,$GPGSV,3,3,11,31,16,229,,18,03,342,,15,00,028,*44
,1513187705143
NMEA,$GLGSV,2,1,08,80,54,225,09,79,53,004,22,82,43,201,19,83,28,266,18*6B
,1513187705143
NMEA,$GLGSV,2,2,08,81,18,148,26,67,14,059,19,66,11,109,,73,05,207,*68
,1513187705143
NMEA,$BDGSV,1,1,02,214,25,085,,211,14,126,*65
,1513187705143
NMEA,$GPGSA,A,3,02,05,12,20,21,25,29,,,,,,2.9,1.8,2.2*39
,1513187705143
NMEA,$GNGSA,A,3,02,05,12,20,21,25,29,,,,,,2.9,1.8,2.2*27
,1513187705143
NMEA,$GNGSA,A,3,67,79,81,82,83,,,,,,,,2.9,1.8,2.2*29
,1513187705143
NMEA,$QZGSA,A,3,,,,,,,,,,,,,2.9,1.8,2.2*2C
,1513187705143
NMEA,$IMGSA,A,3,,,,,,,,,,,,,2.9,1.8,2.2*23
,1513187705143
NMEA,$BDGSA,A,3,,,,,,,,,,,,,2.9,1.8,2.2*21
,1513187705143
NMEA,$GAGSA,A,3,,,,,,,,,,,,,2.9,1.8,2.2*21
,1513187705143
NMEA,$PGLOR,1,FIX,1.0,1.0*20
,1513187705143
NMEA,$GPRMC,175505.00,A,2207.260919,S,05124.536733,W,000.0,,131217,,,A*7C
,1513187705143
Fix,gps,-22.121015,-51.408946,437.788989,0.000000,8.000000,1513187705443
Nav,104,769,1,1,3,28,1,48,90,19,96,-74,39,87,-95,-120
NMEA,$PGLOR,1,AGC,G,-22.5,R,-31.7,B,-30.6*53
,1513187706147
Raw,154486754,178714000000,,,-1197222745285880226,0.0,11.357874046917923,,,0,2,0.0,47,323723920703996,58,24.21890640258789,861.0439126517595,0.2906588504279113,1,149332.3914242987,0.005270406603813171,,,,,0,,1,,
Raw,154486755,178714000000,,,-1197222745285880226,0.0,11.357874046917923,,,0,5,0.0,47,323723924206518,83,18.441936492919922,207.4257963153675,4.20075675946101,4,33395.89658887042,3.4028234663852886E38,,,,,0,,1,,
Raw,154486755,178714000000,,,-1197222745285880226,0.0,11.357874046917923,,,0,12,0.0,47,323723930267003,31,29.42683219909668,347.5365256385105,0.15938529322478934,1,59923.13630813397,0.0028936623129993677,,,,,0,,1,,
Raw,154486755,178714000000,,,-1197222745285880226,0.0,11.357874046917923,,,0,20,0.0,51,7539978,79,19.226524353027344,-239.46685002228764,4.201356397680458,4,-41728.64913049985,3.4028234663852886E38,,,,,0,,1,,
Raw,154486756,178714000000,,,-1197222745285880226,0.0,11.357874046917923,,,0,21,0.0,39,323723924497393,63,22.20819091796875,-370.4254172953604,4.20080894822256,4,-66024.34740059024,3.4028234663852886E38,,,,,0,,1,,
Raw,154486756,178714000000,,,-1197222745285880226,0.0,11.357874046917923,,,0,24,0.0,16,20859101,1000000000,7.0,819.6543819451977,2.99792458E8,4,119679.80531962405,3.4028234663852886E38,,,,,0,,1,,
Raw,154486757,178714000000,,,-1197222745285880226,0.0,11.357874046917923,,,0,25,0.0,47,323723930835066,60,22.869693756103516,-77.5363871828012,4.201949112900925,4,-14912.498018601287,3.4028234663852886E38,,,,,0,,1,,
Raw,154486757,178714000000,,,-1197222745285880226,0.0,11.357874046917923,,,0,29,0.0,47,323723928167220,70,20.970726013183594,151.37881548029065,4.201469029548498,4,26454.814241898268,3.4028234663852886E38,,,,,0,,1,,
Raw,154486757,178714000000,,,-1197222745285880226,0.0,11.357874046917923,,,0,18,0.0,99,5930958835,79,19.248126983642578,403.86504460569404,4.201971479513018,4,66415.90743871963,3.4028234663852886E38,,,,,0,,3,,
Raw,154486758,178714000000,,,-1197222745285880226,0.0,11.357874046917923,,,0,16,0.0,64,5933014313,1000000000,8.545036315917969,-182.73118202948262,2.99792458E8,4,-28214.40201144581,3.4028234663852886E38,,,,,1,,3,,
Raw,154486758,178714000000,,,-1197222745285880226,0.0,11.357874046917923,,,0,15,0.0,227,75305932911085,71,20.781421661376953,724.7154498587788,4.202322422307526,4,122503.85087779313,3.4028234663852886E38,,,,,0,,3,,
Raw,154486759,178714000000,,,-1197222745285880226,0.0,11.357874046917923,,,0,19,0.0,17,6779063,89,17.206363677978516,-3.1753237479814285,4.201219535315984,4,-1154.6178784451522,3.4028234663852886E38,,,,,0,,3,,
Raw,154486759,178714000000,,,-1197222745285880226,0.0,11.357874046917923,,,0,17,0.0,227,75305923875884,94,26.018230438232422,658.319552636518,0.2339446109808374,1,98447.1350499711,0.004207287915050983,,,,,0,,3,,
Raw,154486759,178714000000,,,-1197222745285880226,0.0,11.357874046917923,,,0,3,0.0,99,5922646900,80,18.996265411376953,-324.60206573728965,4.20047611173308,4,-47998.769425888255,3.4028234663852886E38,,,,,0,,3,,
NMEA,$GPGGA,175506.00,2207.260919,S,05124.536733,W,1,12,0.8,437.8,M,0.0,M,,*57
,1513187706147
NMEA,$PGLOR,9,STA,175506.00,-0.941,0.000,608,1,8,0,P,F,L,0,C,3,S,00180002,18,5,R,000833F4,TPEF,19,178714,LC,,,*6B
,1513187706147
NMEA,$PGLOR,1,UNC,175506.00,0.011,8.0,3.0,0.51,124.70,5.7,5.7,0.0*22
,1513187706147
NMEA,$PGLOR,2,SAT,4,1,G25,23,17,G12,29,1F,R16,09,30,R15,21,3F,G29,21,1F,R18,19,3F*29
,1513187706147
NMEA,$PGLOR,2,SAT,4,2,G20,19,1F,G21,22,1F,G05,18,1F,R19,17,3F,G24,,10,R17,26,1F*4F
,1513187706147
NMEA,$PGLOR,2,SAT,4,3,G02,24,1F,R03,19,3B,G31,,30,R02,,30,R09,,30,G18,,30*29
,1513187706147
NMEA,$PGLOR,2,SAT,4,4,G15,,10,B14,,0,B11,,0*59
,1513187706147
NMEA,$PGLOR,1,SVC,GPS,3,1,11,012,UNKN,UNKN,020,UNKN,UNKN,025,UNKN,UNKN,029,UNKN,UNKN*7A
,1513187706147
NMEA,$PGLOR,1,SVC,GPS,3,2,11,002,UNKN,UNKN,005,UNKN,UNKN,021,CLIN,CLIN,024,UNKN,UNKN*76
,1513187706147
NMEA,$PGLOR,1,SVC,GPS,3,3,11,015,CLIN,CLIN,018,CLIN,CLIN,031,CLIN,CLIN*66
,1513187706147
NMEA,$PGLOR,1,SVC,GLO,2,1,08,056,CLIN,CLIN,058,UNKN,UNKN,059,UNKN,UNKN,062,UNKN,UNKN*78
,1513187706147
NMEA,$PGLOR,1,SVC,GLO,2,2,08,055,UNKN,UNKN,057,UNKN,UNKN,063,CLIN,CLIN,064,CLIN,CLIN*78
,1513187706147
NMEA,$PGLOR,1,SVC,BDS,1,1,02,091,CLIN,CLIN,094,CLIN,CLIN*63
,1513187706147
NMEA,$PGLOR,2,SIO,TxERR,0,RxERR,0,TxCNT,431,RxCNT,4470,MLFRMPKT,0,DTMS,1005,DTIN,33,49,DTOUT,100,954,HATMD,29*2F
,1513187706147
NMEA,$PGLOR,1,HLA,175506.00,L,,Al,,A,,H,,,M,1,Ac,0,Gr,0,S,,,Sx,,,T,0,Tr,,Mn,,Ap,437,Ta,0,,*02
,1513187706147
NMEA,$PGLOR,2,CTX,175506.00,E,3,1,,,V,0,1,S,,,*7A
,1513187706147
NMEA,$PGLOR,4,PWR,mA,61.4,RFTm,1001,OscTm,1001,MeasTm,1001,UTC,175506.00,GNSSmA,61,CPUTm,219,COPTm,60,SrchTm,852,TrkTm,9,RpcT,1513187706147
NMEA,$GPGSV,3,1,11,25,68,178,25,12,56,079,29,29,45,202,21,20,42,031,20*73
,1513187706147
NMEA,$GPGSV,3,2,11,21,35,307,22,05,33,100,18,24,18,003,,02,15,140,24*7D
,1513187706147
NMEA,$GPGSV,3,3,11,31,16,229,,18,03,342,,15,00,028,*44
,1513187706147
NMEA,$GLGSV,2,1,08,80,54,225,09,79,53,004,22,82,43,201,19,83,28,266,18*6B
,1513187706147
NMEA,$GLGSV,2,2,08,81,18,148,26,67,14,059,19,66,11,109,,73,05,207,*68
,1513187706147
NMEA,$BDGSV,1,1,02,214,25,085,,211,14,126,*65
,1513187706148
NMEA,$GPGSA,A,3,02,05,12,20,21,25,29,,,,,,1.8,0.9,1.6*3C
,1513187706148
NMEA,$GNGSA,A,3,02,05,12,20,21,25,29,,,,,,1.8,0.9,1.6*22
,1513187706148
NMEA,$GNGSA,A,3,67,79,81,82,83,,,,,,,,1.8,0.9,1.6*2C
,1513187706148
NMEA,$QZGSA,A,3,,,,,,,,,,,,,1.8,0.9,1.6*29
,1513187706148
NMEA,$IMGSA,A,3,,,,,,,,,,,,,1.8,0.9,1.6*26
,1513187706148
NMEA,$BDGSA,A,3,,,,,,,,,,,,,1.8,0.9,1.6*24
,1513187706148
NMEA,$GAGSA,A,3,,,,,,,,,,,,,1.8,0.9,1.6*24
,1513187706148
NMEA,$PGLOR,1,FIX,1.0,1.0*20
,1513187706148
NMEA,$GPRMC,175506.00,A,2207.260919,S,05124.536733,W,000.0,,131217,,,A*7F
,1513187706148
Fix,gps,-22.121015,-51.408946,437.796910,0.000000,8.000000,1513187706445
