     2.11           OBSERVATION DATA    M (MIXED)           RINEX VERSION / TYPE
GNSS Calculator     FCT/UNESP               2018Mar15 UTC   PGM / RUN BY / DATE
GNSS Mobile Calculator                                      MARKER NAME
41611M002                                                   MARKER NUMBER
Android App         GNSS Calculator                         OBSERVER / AGENCY
0040109624          motorola            moto x4             REC # / TYPE / VERS
0040109624          moto x4             NONE                ANT # / TYPE
  3687622.7392 -4620693.7459 -2387156.6329                  APPROX POSITION XYZ
        0.0000        0.0000        0.0000                  ANTENNA: DELTA H/E/N
     1     1                                                WAVELENGTH FACT L1/2
     1    C1                                                # / TYPES OF OBSERV
     1.000                                                  INTERVAL
    18                                                      LEAP SECONDS
Trabalho de Conclusao de Curso - FCT/UNESP - Computacao     COMMENT
Autor: Rogerio Ramos Rodrigues do Carmo                     COMMENT
Arquivo gerado a partir de medicoes de aparelho Android     COMMENT
  2018    10   31    21      6    6.4470000     GPS         TIME OF FIRST OBS
                                                            END OF HEADER
 18 10 31 21  6  6.4470000  0  6G05G12G15G21G25G29
  23523133.366
  22714431.225
  25028573.283
  21148721.938
  20656521.794
  21460290.55
 18 10 31 21  6  7.4470000  0  6G05G12G15G21G25G29
  23523556.377
  22714995.739
  25028314.566
  21148444.34
  20656764.317
  21460270.168
 18 10 31 21  6  8.4470000  0  8G05G10G12G15G21G25G29G31
  23523991.079
  25266567.118
  22715568.647
  25028051.033
  21148206.598
  20656996.056
  21460246.488
  23003309.441
 18 10 31 21  6  9.4470000  0  8G05G10G12G15G21G25G29G31
  23524421.576
  25265852.41
  22716135.849
  25027814.513
  21147952.086
  20657250.882
  21460226.089
  23003362.804
 18 10 31 21  6 10.4470000  0  8G05G10G12G15G21G25G29G31
  23524851.48
  25265183.281
  22716712.945
  25027562.985
  21147682.568
  20657483.528
  21460196.72
  23003410.774
 18 10 31 21  6 11.4470000  0  8G05G10G12G15G21G25G29G31
  23525278.085
  25264489.251
  22717258.875
  25027296.172
  21147422.647
  20657718.565
  21460174.837
  23003458.431
 18 10 31 21  6 12.4470000  0  7G05G12G15G21G25G29G31
  23525703.487
  22717846.163
  25027070.715
  21147166.321
  20657966.794
  21460152.937
  23003506.401
 18 10 31 21  6 13.4470000  0  7G05G12G15G21G25G29G31
  23526118.401
  22718421.461
  25026826.098
  21146907.604
  20658215.914
  21460134.964
  23003554.372
 18 10 31 21  6 14.4470000  0  7G05G12G15G21G25G29G31
  23526558.809
  22718977.879
  25026552.374
  21146643.477
  20658446.448
  21460099.575
  23003602.046
 18 10 31 21  6 15.4470000  0  7G05G12G15G21G25G29G31
  23526996.496
  22719548.99
  25026316.15
  21146388.058
  20658690.49
  21460082.788
  23003649.999
 18 10 31 21  6 16.4470000  0  7G05G12G15G21G25G29G31
  23527418.913
  22720129.977
  25026060.417
  21146115.852
  20658937.812
  21460063.016
  23003697.673
 18 10 31 21  6 17.4470000  0  6G05G12G15G21G25G29
  23527844.314
  22720695.696
  25025818.191
  21145867.623
  20659170.458
  21460031.222
 18 10 31 21  6 18.4470000  0  5G05G15G21G25G29
  23528274.515
  25025562.458
  21145592.712
  20659406.996
  21460004.244
 18 10 31 21  6 19.4470000  0  5G05G15G21G25G29
  23528705.308
  25025311.244
  21145338.794
  20659653.724
  21459989.865
 18 10 31 21  6 20.4470000  0  6G05G12G15G21G25G29
  23529139.417
  22722399.116
  25025064.202
  21145083.358
  20659895.061
  21459961.683
 18 10 31 21  6 21.4470000  0  6G05G12G15G21G25G29
  23529569.617
  22722950.735
  25024821.085
  21144833.645
  20660137.881
  21459932.89
 18 10 31 21  6 22.4470000  0  6G05G12G15G21G25G29
  23529996.816
  22723523.329
  25024554.254
  21144576.412
  20660376.512
  21459914.916
 18 10 31 21  6 23.4470000  0  6G05G12G15G21G25G29
  23530419.827
  22724102.537
  25024314.121
  21144295.812
  20660622.944
  21459887.031
 18 10 31 21  6 24.4470000  0  5G05G15G21G25G29
  23530862.923
  25024043.119
  21144058.978
  20660867.579
  21459865.742
 18 10 31 21  6 25.4470000  0  7G05G15G20G21G25G26G29
  23531291.326
  25023803.877
  22518767.186
  21143793.961
  20661107.711
  24206641.887
  21459837.263
 18 10 31 21  6 26.4470000  0  7G05G15G20G21G25G26G29
  23531726.028
  25023537.36
  22518133.115
  21143522.349
  20661346.64
  24205972.759
  21459810.285
 18 10 31 21  6 27.4470000  0  8G05G12G15G20G21G25G26G29
  23532156.822
  22726394.152
  25023296.931
  22517518.85
  21143274.713
  20661592.775
  24205328.497
  21459787.495
 18 10 31 21  6 28.4470000  0  8G05G12G15G20G21G25G26G29
  23532579.832
  22726965.856
  25023051.703
  22516872.197
  21143053.461
  20661817.325
  24204683.938
  21459771.912
 18 10 31 21  6 29.4470000  0  8G05G12G15G20G21G25G26G29
  23533005.234
  22727512.379
  25022802.566
  22516248.334
  21142795.041
  20662063.46
  24204035.191
  21459737.134
 18 10 31 21  6 30.4470000  0  8G05G12G15G20G21G25G26G29
  23533447.736
  22728086.177
  25022553.15
  22515625.065
  21142536.621
  20662310.782
  24203380.756
  21459707.451
 18 10 31 21  6 31.4470000  0  7G05G12G15G20G25G26G29
  23533872.841
  22728662.383
  25022306.125
  22515032.071
  20662560.512
  24202749.686
  21459694.258
 18 10 31 21  6 32.4470000  0  8G05G12G15G20G21G25G26G29
  23534293.74
  22729210.093
  25022070.477
  22514385.122
  21142038.975
  20662796.142
  24202082.948
  21459679.565
 18 10 31 21  6 33.4470000  0  6G05G12G15G25G26G29
  23534731.741
  22729789.894
  25021812.057
  20663035.978
  24201458.771
  21459652.884
 18 10 31 21  6 34.4470000  0  8G05G12G15G20G21G25G26G29
  23535164.942
  22730356.206
  25021556.935
  22513121.185
  21141482.558
  20663286.005
  24200862.794
  21459623.515
 18 10 31 21  6 35.4470000  0  8G05G12G15G20G21G25G26G29
  23535587.36
  22730920.11
  25021296.124
  22512520.112
  21141201.051
  20663528.842
  24200214.344
  21459611.527
 18 10 31 21  6 36.4470000  0  7G05G10G12G15G20G25G29
  23536023.546
  25247109.986
  22731493.018
  25021016.711
  22511891.748
  20663772.272
  21459599.225
 18 10 31 21  6 37.4470000  0  7G05G10G12G15G20G25G29
  23536460.953
  25246421.365
  22732065.019
  25020798.164
  22511237.295
  20664025.894
  21459552.458
 18 10 31 21  6 38.4470000  0  7G05G10G12G15G20G25G29
  23536891.45
  25245727.946
  22732636.426
  25020530.443
  22510612.821
  20664265.119
  21459533.873
 18 10 31 21  6 39.4470000  0  6G05G12G15G20G25G29
  23537324.355
  22733213.522
  25020310.692
  22510035.725
  20664499.266
  21459531.483
 18 10 31 21  6 40.4470000  0  7G05G10G12G15G20G25G29
  23537744.66
  25244341.701
  22733775.332
  25020016.604
  22509408.268
  20664747.792
  21459493.703
 18 10 31 21  6 41.4470000  0  7G05G10G12G15G20G25G29
  23538192.852
  25243645.891
  22734346.146
  25019772.58
  22508762.505
  20664996.929
  21459461.926
 18 10 31 21  6 42.4470000  0  7G05G10G12G15G20G25G29
  23538620.958
  25242950.063
  22734921.148
  25019507.249
  22508154.836
  20665234.653
  21459437.932
 18 10 31 21  6 43.4470000  0  7G05G12G15G20G25G26G29
  23539058.348
  22735482.958
  25019255.129
  22507532.456
  20665477.194
  24195031.525
  21459420.255
 18 10 31 21  6 44.4470000  0  8G05G10G12G15G20G25G26G29
  23539480.154
  25241550.032
  22736062.148
  25018996.412
  22506881.319
  20665724.219
  24194383.074
  21459402.857
 18 10 31 21  6 45.4470000  0  8G05G10G12G15G20G21G25G29
  23539919.359
  25240848.83
  22736606.281
  25018764.673
  22506252.954
  21138645.624
  20665975.746
  21459368.393
 18 10 31 21  6 46.4470000  0  9G05G10G12G15G20G21G25G26G29
  23540339.962
  25240140.421
  22737211.856
  25018516.147
  22505633.279
  21138386.907
  20666218.584
  24193036.406
  21459356.091
 18 10 31 21  6 47.4470000  0  8G05G10G12G15G20G25G26G29
  23540766.27
  25239444.594
  22737768.867
  25018275.404
  22505025
  20666459.903
  24192401.445
  21459340.211
 18 10 31 21  6 48.4470000  0  7G05G12G15G20G25G26G29
  23541129.619
  22738265.622
  25017931.844
  22504323.187
  20666622.696
  24191612.695
  21459221.497
 18 10 31 21  6 49.4470000  0  8G05G10G12G15G20G25G26G29
  23541549.017
  25237982.806
  22738837.029
  25017667.124
  22503726.302
  20666867.034
  24190965.153
  21459200.208
 18 10 31 21  6 50.4470000  0  7G05G10G12G15G20G25G29
  23541995.411
  25237286.7
  22739411.735
  25017434.199
  22503085.042
  20667100.867
  21459176.231
 18 10 31 21  6 51.4470000  0  8G05G10G12G15G20G25G26G29
  23542430.707
  25236618.147
  22739961.853
  25017196.16
  22502453.379
  20667354.488
  24189709.609
  21459148.642
 18 10 31 21  6 52.4470000  0  8G05G10G12G15G20G25G26G29
  23542849.53
  25235879.759
  22740528.165
  25016926.048
  22501831.61
  20667594.62
  24189050.968
  21459127.65
 18 10 31 21  6 53.4470000  0  8G05G10G12G15G20G21G25G29
  23543299.222
  25235192.045
  22741115.452
  25016750.97
  22501190.943
  21136509.298
  20667840.145
  21459105.471
 18 10 31 21  6 54.4470000  0  8G05G10G12G20G21G25G26G29
  23543723.419
  25234544.782
  22741688.657
  22500573.973
  21136251.471
  20668086.891
  24187768.151
  21459079.697
 18 10 31 21  6 55.4470000  0  9G05G10G12G15G20G21G25G26G29
  23544150.321
  25233848.972
  22742262.769
  25016185.862
  22499945.014
  21136011.653
  20668342.013
  24187130.799
  21459051.811
 18 10 31 21  6 56.4470000  0  9G05G10G12G15G20G21G25G26G29
  23544585.931
  25233116.586
  22742843.46
  25015892.96
  22499343.331
  21135756.827
  20668576.439
  24186464.968
  21459034.117
 18 10 31 21  6 57.4470000  0  9G05G10G12G15G20G21G25G26G29
  23545019.115
  25232424.354
  22743397.173
  25015626.147
  22498726.954
  21135515.194
  20668834.563
  24185816.501
  21459004.748
 18 10 31 21  6 58.4470000  0  8G05G10G12G15G20G25G26G29
  23545451.427
  25231725.246
  22743978.178
  25015466.652
  22498107.594
  20669072.602
  24185171.349
  21458983.755
 18 10 31 21  6 59.4470000  0  7G05G10G12G20G25G26G29
  23545883.128
  25231038.719
  22744545.083
  22497459.737
  20669323.518
  24184525.603
  21458953.183
 18 10 31 21  7  0.4470000  0  8G05G10G12G20G21G25G26G29
  23546308.529
  25230343.502
  22745094.904
  22496839.155
  21134743.231
  20669557.072
  24183869.353
  21458927.391
 18 10 31 21  7  1.4470000  0  8G05G10G12G20G21G25G26G29
  23546742.638
  25229655.772
  22745667.795
  22496231.783
  21134480.309
  20669804.987
  24183215.214
  21458897.708
 18 10 31 21  7  2.4470000  0  9G05G10G12G15G20G21G25G26G29
  23547167.132
  25228951.865
  22746247.91
  25014402.991
  22495591.726
  21134221.278
  20670042.136
  24182578.456
  21458890.519
 18 10 31 21  7  3.4470000  0  9G05G10G12G15G20G21G25G26G29
  23547610.822
  25228231.468
  22746819.3
  25014119.39
  22494956.172
  21133981.442
  20670286.753
  24181900.62
  21458860.243
 18 10 31 21  7  4.4470000  0  8G05G10G12G20G21G25G26G29
  23548055.122
  25227539.532
  22747388.317
  22494366.773
  21133708.94
  20670532.591
  24181280.055
  21458834.155
 18 10 31 21  7  5.4470000  0  9G05G10G12G15G20G21G25G26G29
  23548480.523
  25226871.607
  22747956.112
  25013654.708
  22493743.207
  21133453.521
  20670780.21
  24180632.198
  21458818.868
 18 10 31 21  7  6.4470000  0  8G05G10G12G15G20G25G26G29
  23548896.344
  25226146.708
  22748526.333
  25013366.308
  22493119.344
  20671032.052
  24179984.341
  21458801.488
 18 10 31 21  7  7.4470000  0  7G05G10G12G15G20G25G29
  23549340.034
  25225463.183
  22749107.024
  25013123.768
  22492465.799
  20671274.871
  21458768.21
 18 10 31 21  7  8.4470000  0  7G05G10G12G15G20G25G29
  23549770.234
  25224763.464
  22749661.644
  25012890.842
  22491874.01
  20671519.803
  21458740.325
 18 10 31 21  7  9.4470000  0  8G05G10G12G15G20G21G25G29
  23550200.731
  25224067.34
  22750237.239
  25012628.81
  22491241.142
  21132504.368
  20671765.938
  21458712.143
 18 10 31 21  7 10.4470000  0  8G05G10G12G15G20G21G25G29
  23550638.731
  25223377.515
  22750820.042
  25012375.188
  22490619.967
  21132181.505
  20672023.154
  21458675.864
 18 10 31 21  7 11.4470000  0  8G05G10G12G15G20G21G25G29
  23551068.338
  25222668.809
  22751379.757
  25012122.178
  22490010.187
  21131932.368
  20672256.394
  21458671.379
 18 10 31 21  7 12.4470000  0  7G05G10G12G15G20G25G29
  23551514.732
  25221972.389
  22751941.567
  25011905.725
  22489376.133
  20672494.729
  21458647.996
 18 10 31 21  7 13.4470000  0  8G05G10G12G15G20G21G25G29
  23551933.241
  25221300.555
  22752509.362
  25011608.025
  22488729.184
  21131439.818
  20672749.554
  21458614.107
 18 10 31 21  7 14.4470000  0  7G05G10G12G20G21G25G29
  23552372.131
  25220605.042
  22753079.566
  22488131.985
  21131208.376
  20672989.983
  21458587.129
 18 10 31 21  7 15.4470000  0  8G05G10G12G15G20G21G25G29
  23552809.835
  25219905.026
  22753653.067
  25011138.544
  22487502.73
  21130932.261
  20673252.609
  21458570.936
 18 10 31 21  7 16.2510000  0  9G05G10G12G15G20G21G25G29G31
  23553162.992
  25219345.904
  22754109.652
  25010935.598
  22486998.471
  21130727.5
  20673437.878
  21458550.85
  23006699.495
 18 10 31 21  7 17.5420000  0  7G05G12G20G21G25G29G31
  23553734.976
  22754875.019
  22486249.892
  21130443.899
  20673810.214
  21458579.626
  23006817.004
 18 10 31 21  7 18.5320000  0  7G05G12G20G25G26G29G31
  23554094.45
  22755371.181
  22485553.785
  20673971.506
  24172089.619
  21458466.915
  23006793.324
 18 10 31 21  7 19.5460000  0  6G05G12G20G25G29G31
  23554550.128
  22755980.071
  22484943.69
  20674238.616
  21458449.517
  23006841.295
 18 10 31 21  7 20.5380000  0  5G05G12G25G29G31
  23554932.357
  22756484.906
  20674413.991
  21458381.758
  23006867.662
 18 10 31 21  7 21.5490000  0  8G05G12G15G20G25G26G29G31
  23555457.591
  22757177.732
  25009599.714
  22483721.146
  20674776.746
  24170200.912
  21458472.604
  23007002.273
 18 10 31 21  7 22.5420000  0  8G05G10G12G15G20G25G29G31
  23555918.382
  25214982.425
  22757755.125
  25009400.659
  22483119.759
  20675036.964
  21458450.424
  23007066.734
 18 10 31 21  7 23.4540000  0  6G05G12G21G25G29G31
  23556290.42
  22758226.717
  21128878.998
  20675229.736
  21458378.774
  23007083.539
 18 10 31 21  7 24.6460000  0  7G05G12G20G21G25G29G31
  23556855.232
  22758966.292
  22481838.756
  21128599.882
  20675588.286
  21458423.446
  23007209.739
 18 10 31 21  7 25.7390000  0  8G05G10G12G15G20G25G29G31
  23557320.507
  25212744.783
  22759566.492
  25008613.707
  22481145.93
  20675832.921
  21458373.975
  23007255.616
 18 10 31 21  7 26.5500000  0  8G05G12G20G21G25G26G29G31
  23557623.896
  22760032.657
  22480600.296
  21128101.626
  20676006.201
  24166952.676
  21458343.106
  23007280.796
 18 10 31 21  7 27.5430000  0  8G05G10G12G20G25G26G29G31
  23558070.587
  25211517.422
  22760603.454
  22479992.313
  20676266.716
  24166334.781
  21458317.611
  23007334.456
 18 10 31 21  7 28.5540000  0  9G05G10G12G20G21G25G26G29G31
  23558498.99
  25210790.429
  22761159.872
  22479354.962
  21127585.676
  20676496.657
  24165638.674
  21458272.345
  23007368.327
 18 10 31 21  7 29.4450000  0  6G05G12G20G25G29G31
  23558802.083
  22761595.481
  22478690.335
  20676621.67
  21458148.536
  23007356.338
 18 10 31 21  7 30.7360000  0  5G05G12G25G29G31
  23559384.571
  22762346.451
  20676987.41
  21458155.428
  23007432.177
 18 10 31 21  7 31.5460000  0  5G05G12G25G29G31
  23559790.794
  22762878.892
  20677223.057
  21458189.91
  23007533.528
 18 10 31 21  7 32.4410000  0  6G05G12G21G25G29G31
  23560133.464
  22763345.075
  21126507.619
  20677414.032
  21458127.857
  23007555.41
 18 10 31 21  7 33.7570000  0  5G05G12G25G29G31
  23560767.221
  22764143.108
  20677793.854
  21458149.129
  23007680.72
 18 10 31 21  7 34.4470000  0  5G05G12G25G29G31
  23561014.247
  22764497.173
  20677929.076
  21458080.48
  23007651.334
 18 10 31 21  7 35.6390000  0  5G05G12G25G29G31
  23561601.534
  22765261.336
  20678296.315
  21458132.935
  23007810.515
 18 10 31 21  7 36.6500000  0  5G05G12G25G29G31
  23561914.521
  22765691.536
  20678411.435
  21457981.24
  23007749.055
 18 10 31 21  7 37.7440000  0  5G05G12G25G29G31
  23562466.733
  22766415.825
  20678747.194
  21458025.005
  23007857.578
 18 10 31 21  7 38.4530000  0  5G05G12G25G29G31
  23562793.209
  22766837.649
  20678969.353
  21458016.629
  23007903.455
 18 10 31 21  7 39.7460000  0  7G05G12G15G21G25G29G31
  23563262.096
  22767476.205
  25004914.854
  21124692.377
  20679160.311
  21457908.089
  23007904.659
 18 10 31 21  7 40.4390000  0  6G05G12G15G25G29G31
  23563637.73
  22767957.063
  25004852.19
  20679463.403
  21457984.538
  23008032.36
 18 10 31 21  7 41.7510000  0  5G05G12G25G29G31
  23564226.832
  22768676.57
  20679778.188
  21457947.073
  23008107.919
 18 10 31 21  7 42.5420000  0  5G05G12G25G29G31
  23564561.405
  22769170.342
  20679971.554
  21457919.501
  23008154.092
 18 10 31 21  7 43.4560000  0  5G05G12G25G29G31
  23564907.059
  22769632.022
  20680130.752
  21457812.776
  23008125.02
 18 10 31 21  7 44.6460000  0  5G05G12G25G29G31
  23565515.338
  22770448.343
  20680561.842
  21457926.691
  23008301.285
 18 10 31 21  7 45.6390000  0  7G05G12G15G20G25G29G31
  23565902.96
  22770954.103
  25003556.197
  22468710.835
  20680730.935
  21457836.456
  23008290.187
 18 10 31 21  7 46.7500000  0  5G05G12G25G29G31
  23566401.827
  22771601.052
  20681015.129
  21457813.073
  23008380.125
 18 10 31 21  7 47.4410000  0  6G05G12G15G25G29G31
  23566669.234
  22771950.004
  25003023.756
  20681169.215
  21457778.888
  23008396.912
 18 10 31 21  7 48.6520000  0  6G05G12G20G25G29G31
  23567225.338
  22772660.507
  22466845.511
  20681473.808
  21457748.001
  23008486.851
 18 10 31 21  7 49.6460000  0  5G05G12G25G29G31
  23567655.852
  22773228.931
  20681716.349
  21457713.24
  23008530.022
 18 10 31 21  7 50.6390000  0  8G05G10G12G15G20G25G29G31
  23568107.935
  25195347.824
  22773830.3
  25002230.818
  22465613.386
  20682015.847
  21457719.225
  23008602.877
 18 10 31 21  7 51.6510000  0  7G12G15G20G21G25G29G31
  22774354.051
  25001924.428
  22464909.462
  21121613.513
  20682201.116
  21457669.161
  23008621.758
 18 10 31 21  7 52.6430000  0  6G05G12G20G25G29G31
  23568962.646
  22774971.317
  22464339.573
  20682509.304
  21457678.462
  23008724.592
 18 10 31 21  7 53.6550000  0  7G05G12G15G20G25G29G31
  23569416.544
  22775539.13
  25001468.157
  22463737.278
  20682751.234
  21457663.472
  23008765.67
 18 10 31 21  7 54.6470000  0  7G05G12G15G20G25G29G31
  23569840.131
  22776107.815
  25001228.897
  22463111.601
  20683011.452
  21457641.572
  23008836.117
 18 10 31 21  7 55.6390000  0  8G05G10G12G15G20G25G29G31
  23570198.977
  25191765.905
  22776621.061
  25000868.55
  22462418.182
  20683182.324
  21457536.958
  23008825.612
 18 10 31 21  7 56.6470000  0  7G05G12G20G21G25G29G31
  23570680.76
  22777211.07
  22461812.921
  21120385.262
  20683461.144
  21457535.754
  23008902.375
 18 10 31 21  7 57.6430000  0  6G05G12G20G25G29G31
  23571128.044
  22777795.059
  22461215.111
  20683717.749
  21457517.466
  23008937.433
 18 10 31 21  7 58.6540000  0  6G05G12G20G25G29G31
  23571561.542
  22778368.857
  22460570.57
  20683966.589
  21457495.287
  23009049.864
 18 10 31 21  7 59.6480000  0  6G05G12G15G20G25G29
  23571971.361
  22778956.459
  24999908.334
  22459955.101
  20684204.628
  21457481.204
 18 10 31 21  8  0.6390000  0  7G05G12G20G21G25G29G31
  23572502.004
  22779564.442
  22459385.805
  21119452.321
  20684514.317
  21457505.792
  23009203.671
 18 10 31 21  8  1.6510000  0  7G05G12G15G20G25G29G31
  23572957.368
  22780159.808
  24999482.304
  22458826.962
  20684794.009
  21457505.774
  23009295.686
 18 10 31 21  8  2.7439999  0  8G05G12G15G20G21G25G29G31
  23573306.04
  22780682.058
  24999089.291
  22457988.758
  21118845.821
  20684956.209
  21457364.881
  23009228.241
 18 10 31 21  8  3.4540000  0  7G05G12G15G20G25G29G31
  23573716.155
  22781188.411
  24999032.926
  22457667.081
  20685234.103
  21457459.915
  23009395.832
 18 10 31 21  8  4.6460000  0  7G05G12G15G20G25G29G31
  23574280.653
  22781928.004
  24998732.835
  22456952.965
  20685595.951
  21457467.105
  23009491.46
 18 10 31 21  8  5.6390000  0  7G05G12G15G20G25G29G31
  23574575.369
  22782336.321
  24998326.036
  22456169.625
  20685710.198
  21457290.543
  23009402.725
 18 10 31 21  8  6.6490000  0  6G05G12G20G25G29G31
  23575001.975
  22782911.62
  22455518.767
  20685941.029
  21457271.645
  23009453.383
 18 10 31 21  8  7.6420000  0  8G05G12G15G20G21G25G29G31
  23575458.856
  22783455.142
  24997857.759
  22454965.961
  21117569.32
  20686220.128
  21457254.561
  23009518.455
 18 10 31 21  8  8.6550000  0  7G05G12G15G20G25G29G31
  23576003.879
  22784195.031
  24997710.252
  22454408.34
  20686549.309
  21457326.805
  23009647.953
 18 10 31 21  8  9.7480000  0  7G05G12G15G20G25G29G31
  23576436.767
  22784759.843
  24997362.19
  22453675.343
  20686784.939
  21457252.449
  23009696.221
 18 10 31 21  8 10.5400000  0  7G05G12G15G20G25G29G31
  23576709.269
  22785143.573
  24997089.059
  22453128.209
  20686900.355
  21457155.618
  23009667.428
 18 10 31 21  8 11.4490000  0  8G05G10G12G15G20G25G29G31
  23577130.186
  25180751.519
  22785699.083
  24996846.85
  22452578.702
  20687177.97
  21457169.718
  23009762.165
 18 10 31 21  8 12.7440000  0  7G05G12G15G20G25G29G31
  23577719.584
  22786473.454
  24996604.921
  22451836.422
  20687543.116
  21457182.3
  23009874.003
 18 10 31 21  8 13.4580000  0  6G12G15G20G25G29G31
  22786861.39
  24996378.277
  22451373.537
  20687695.404
  21457127.436
  23009885.695
 18 10 31 21  8 15.7420000  0  7G05G12G15G20G25G29G31
  23579087.245
  22788247.635
  24995878.224
  22450027.48
  20688332.18
  21457158.026
  23010107.836
 18 10 31 21  8 16.5560000  0  6G12G15G20G25G29G31
  22788624.473
  24995585.322
  22449441.38
  20688458.38
  21457053.691
  23010040.077
 18 10 31 21  8 17.5440000  0  7G05G12G15G20G25G29G31
  23579853.502
  22789225.249
  24995400.943
  22448869.361
  20688754.859
  21457077.668
  23010181.284
 18 10 31 21  8 18.5560000  0  6G05G12G20G25G29G31
  23580318.48
  22789837.123
  22448270.976
  20689032.771
  21457075.574
  23010246.025
 18 10 31 21  8 19.5490000  0  7G05G12G15G20G25G29G31
  23580703.432
  22790347.682
  24994824.143
  22447573.072
  20689237.253
  21456994.937
  23010212.171
 18 10 31 21  8 20.5430000  0  6G05G12G20G25G29G31
  23581165.112
  22790932.875
  22446957.306
  20689489.077
  21456978.743
  23010316.192
 18 10 31 21  8 21.5510000  0  6G05G12G20G25G29G31
  23581572.505
  22791509.657
  22446357.106
  20689740.884
  21456949.95
  23010372.242
 18 10 31 21  8 22.5440000  0  6G05G12G20G25G29G31
  23582011.116
  22792048.101
  22445715.252
  20690012.2
  21456924.176
  23010426.215
 18 10 31 21  8 23.5380000  0  7G05G10G12G20G25G29G31
  23582500.072
  25172369.028
  22792722.325
  22445178.326
  20690314.106
  21456960.455
  23010563.514
 18 10 31 21  8 24.5480000  0  6G05G12G20G25G29G31
  23582875.705
  22793227.177
  22444431.23
  20690487.666
  21456869.609
  23010520.639
 18 10 31 21  8 25.4360000  0  7G05G12G15G20G25G29G31
  23583233.365
  22793666.678
  24993269.713
  22443837.643
  20690643.269
  21456774.279
  23010523.047
 18 10 31 21  8 26.4360000  0  7G05G12G15G20G25G29G31
  23583649.168
  22794244.664
  24993045.774
  22443257.86
  20690911.27
  21456746.096
  23010583.006
 18 10 31 21  8 27.4360000  0  7G05G12G15G20G25G29G31
  23584099.157
  22794841.252
  24992793.653
  22442622.899
  20691175.1
  21456725.121
  23010629.179
 18 10 31 21  8 28.4360000  0  6G05G12G20G25G29G31
  23584509.883
  22795406.674
  22442006.226
  20691430.815
  21456717.914
  23010710.113
 18 10 31 21  8 29.4360000  0  6G05G12G20G25G29G31
  23584965.56
  22795988.569
  22441385.644
  20691687.735
  21456696.032
  23010778.466
 18 10 31 21  8 30.4360000  0  6G05G12G20G25G29G31
  23585388.275
  22796562.071
  22440774.677
  20691938.669
  21456666.052
  23010842.316
 18 10 31 21  8 31.4360000  0  6G05G12G20G25G29G31
  23585838.263
  22797143.966
  22440153.798
  20692194.088
  21456646.875
  23010893.881
 18 10 31 21  8 32.4360000  0  7G05G12G20G25G26G29G31
  23586261.867
  22797733.05
  22439524.246
  20692448.617
  24124154.586
  21456618.396
  23010958.342
 18 10 31 21  8 33.4360000  0  7G05G12G20G25G26G29G31
  23586722.954
  22798299.362
  22438909.667
  20692710.928
  24123515.733
  21456602.795
  23011019.802
 18 10 31 21  8 34.4360000  0  7G05G12G20G25G26G29G31
  23587178.335
  22798864.47
  22438286.991
  20692959.454
  24122882.866
  21456572.816
  23011080.965
 18 10 31 21  8 35.4360000  0  7G05G12G20G25G26G29G31
  23587571.07
  22799456.556
  22437679.322
  20693212.482
  24122245.811
  21456556.639
  23011146.02
 18 10 31 21  8 36.4360000  0  7G05G12G20G25G26G29G31
  23588011.758
  22800040.265
  22437038.358
  20693484.392
  24121597.658
  21456530.551
  23011209.277
 18 10 31 21  8 37.4360000  0  8G05G12G20G21G25G26G29G31
  23588472.234
  22800608.671
  22436408.789
  21110115.565
  20693734.715
  24120957.008
  21456513.171
  23011268.921
 18 10 31 21  8 38.4360000  0  8G05G12G20G21G25G26G29G31
  23588900.637
  22801176.17
  22435801.417
  21109859.849
  20693983.259
  24120315.154
  21456484.081
  23011318.986
 18 10 31 21  8 39.4360000  0  7G05G12G20G21G25G29G31
  23589370.118
  22801774.259
  22435191.636
  21109644.287
  20694253.056
  21456457.4
  23011394.249
 18 10 31 21  8 40.4360000  0  8G05G12G20G21G25G26G29G31
  23589805.413
  22802353.152
  22434568.664
  21109369.69
  20694510.587
  24119023.646
  21456444.818
  23011447.298
 18 10 31 21  8 41.4360000  0  8G05G12G20G21G25G26G29G31
  23590254.809
  22802923.059
  22433954.102
  21109150.533
  20694767.803
  24118394.374
  21456416.636
  23011520.449
 18 10 31 21  8 42.4360000  0  8G05G12G20G21G25G26G29G31
  23590685.899
  22803515.755
  22433331.129
  21108850.145
  20695022.035
  24117721.947
  21456388.751
  23011590.302
 18 10 31 21  8 43.4360000  0  8G05G12G20G21G25G26G29G31
  23591133.2
  22804078.769
  22432720.441
  21108602.212
  20695287.645
  24117092.081
  21456363.867
  23011660.155
 18 10 31 21  8 44.4360000  0  7G05G12G20G25G26G29G31
  23591557.101
  22804662.165
  22432090.593
  20695544.564
  24116393.567
  21456349.767
  23011730.009
 18 10 31 21  8 45.4360000  0  7G05G12G15G21G25G29G31
  23591993.601
  22805241.355
  24988223.913
  21108121.354
  20695795.499
  21456336.592
  23011789.374
 18 10 31 21  8 46.4360000  0  7G05G12G20G21G25G29G31
  23592437.29
  22805825.362
  22430829.361
  21107886.91
  20696058.718
  21456313.506
  23011832.546
 18 10 31 21  8 47.4360000  0  7G05G12G20G21G25G29G31
  23592879.182
  22806382.966
  22430239.369
  21107669.864
  20696312.636
  21456293.717
  23011908.978
 18 10 31 21  8 48.4360000  0  7G05G12G20G21G25G29G31
  23593360.354
  22806941.774
  22429615.803
  21107421.932
  20696574.965
  21456266.425
  23011975.83
 18 10 31 21  8 49.4360000  0  8G05G12G20G21G25G26G29G31
  23593795.946
  22807543.161
  22429009.024
  21107148.818
  20696825.288
  24113203.475
  21456249.952
  23012023.8
 18 10 31 21  8 50.4360000  0  7G05G12G20G21G25G29G31
  23594236.652
  22808125.353
  22428360.574
  21106888.601
  20697087.6
  21456224.457
  23012101.157
 18 10 31 21  8 51.4360000  0  8G05G12G20G21G25G26G29G31
  23594663.554
  22808714.455
  22427780.773
  21106640.982
  20697345.13
  24111917.062
  21456201.685
  23012175.495
 18 10 31 21  8 52.4360000  0  8G05G12G20G21G25G26G29G31
  23595121.029
  22809274.467
  22427140.42
  21106393.643
  20697608.646
  24111240.43
  21456173.502
  23012221.965
 18 10 31 21  8 53.4360000  0  8G05G12G20G21G25G26G29G31
  23595539.241
  22809846.468
  22426528.528
  21106125.328
  20697855.968
  24110626.758
  21456148.618
  23012282.517
 18 10 31 21  8 54.4360000  0  9G05G12G15G20G21G25G26G29G31
  23595997.326
  22810416.078
  24985928.406
  22425904.369
  21105901.686
  20698121.281
  24109981.31
  21456134.833
  23012338.882
 18 10 31 21  8 55.4360000  0  8G05G12G15G20G21G25G29G31
  23596435.92
  22811001.864
  24985675.675
  22425300.888
  21105654.661
  20698371.918
  21456106.947
  23012409.642
 18 10 31 21  8 56.4360000  0  8G05G12G15G20G25G26G29G31
  23596855.929
  22811588.261
  24985422.943
  22424683.307
  20698638.732
  24108701.197
  21456084.751
  23012468.1
 18 10 31 21  8 57.4360000  0  7G05G12G20G25G26G29G31
  23597321.519
  22812167.469
  22424050.144
  20698897.746
  24108033.255
  21456060.477
  23012540.048
 18 10 31 21  8 58.4360000  0  9G05G12G15G20G21G25G26G29G31
  23597762.503
  22812737.969
  24984968.156
  22423421.779
  21104934.56
  20699163.373
  24107378.208
  21456043.394
  23012594.318
 18 10 31 21  8 59.4360000  0  9G05G12G15G20G21G25G26G29G31
  23598211.602
  22813316.566
  24984685.165
  22422799.12
  21104688.128
  20699410.398
  24106733.353
  21456019.103
  23012666.265
 18 10 31 21  9  0.4360000  0  8G05G12G15G20G25G26G29G31
  23598667.279
  22813896.366
  24984442.922
  22422179.742
  20699670.913
  24106117.884
  21455999.018
  23012728.021
 18 10 31 21  9  1.4360000  0  8G05G12G15G20G25G26G29G31
  23599093.588
  22814488.156
  24984141.644
  22421569.368
  20699929.63
  24105444.253
  21455977.729
  23012796.077
 18 10 31 21  9  2.4360000  0  8G05G12G15G20G25G26G29G31
  23599529.477
  22815071.255
  24983910.201
  22420946.395
  20700185.956
  24104813.48
  21455953.455
  23012867.728
 18 10 31 21  9  3.4360000  0  9G05G12G15G20G21G25G26G29G31
  23599973.184
  22815652.853
  24983656.266
  22420336.318
  21103668.233
  20700440.485
  24104168.921
  21455927.367
  23012931.281
 18 10 31 21  9  4.4360000  0  8G05G12G15G20G21G25G29G31
  23600414.762
  22816238.046
  24983402.348
  22419715.16
  21103421.207
  20700702.796
  21455912.971
  23012990.63
 18 10 31 21  9  5.4360000  0  8G05G12G15G20G21G25G29G31
  23600861.47
  22816804.358
  24983166.107
  22419098.487
  21103176.869
  20700964.218
  21455885.103
  23013073.972
 18 10 31 21  9  6.4360000  0  8G05G12G15G20G21G25G29G31
  23601282.666
  22817374.858
  24982869.924
  22418480.907
  21102930.734
  20701215.449
  21455869.206
  23013141.138
 18 10 31 21  9  7.4360000  0  8G05G12G15G20G21G25G29G31
  23601727.856
  22817968.148
  24982611.8
  22417863.326
  21102684.616
  20701479.261
  21455846.119
  23013196.001
 18 10 31 21  9  8.4360000  0  8G05G12G15G20G21G25G29G31
  23602171.248
  22818558.733
  24982366.869
  22417258.048
  21102433.979
  20701744.871
  21455823.643
  23013251.755
 18 10 31 21  9  9.4360000  0  8G05G12G15G20G21G25G29G31
  23602613.751
  22819122.044
  24982104.54
  22416611.395
  21102188.158
  20701994.898
  21455807.746
  23013326.407
 18 10 31 21  9 10.4360000  0  7G05G12G15G20G25G29G31
  23603075.135
  22819717.742
  24981830.537
  22416028.61
  20702267.714
  21455770.874
  23013396.557
 18 10 31 21  9 11.4360000  0  7G05G12G15G20G25G29G31
  23603500.239
  22820286.444
  24981635.67
  22415387.349
  20702524.931
  21455753.79
  23013479.306
 18 10 31 21  9 12.4360000  0  7G05G12G15G20G25G29G31
  23603955.62
  22820848.254
  24981361.963
  22414794.356
  20702789.354
  21455729.813
  23013520.069
 18 10 31 21  9 13.4360000  0  8G05G12G15G20G25G26G29G31
  23604403.201
  22821435.244
  24981083.458
  22414179.777
  20703048.978
  24097718.902
  21455708.821
  23013594.111
 18 10 31 21  9 14.4360000  0  8G05G12G15G20G25G26G29G31
  23604841.812
  22822021.938
  24980860.113
  22413546.317
  20703311.29
  24097104.026
  21455694.128
  23013664.278
 18 10 31 21  9 15.4360000  0  7G05G12G15G20G25G29G31
  23605289.393
  22822582.247
  24980569.601
  22412925.752
  20703551.719
  21455668.354
  23013731.426
 18 10 31 21  9 16.4360000  0  8G05G12G15G20G25G26G29G31
  23605712.997
  22823155.749
  24980342.958
  22412333.055
  20703835.023
  24095768.735
  21455649.455
  23013764.093
 18 10 31 21  9 17.4360000  0  8G05G12G15G20G25G26G29G31
  23606164.486
  22823719.373
  24980041.383
  22411710.693
  20704099.15
  24095150.579
  21455627.572
  23013856.44
 18 10 31 21  9 18.4360000  0  7G05G12G15G20G25G29G31
  23606631.559
  22824345.033
  24979806.329
  22411077.233
  20704368.965
  21455601.798
  23013940.672
 18 10 31 21  9 19.4360000  0  9G05G12G15G20G21G25G26G29G31
  23607063.574
  22824903.545
  24979555.116
  22410470.157
  21099722.669
  20704628.589
  24093856.959
  21455590.7
  23014009.932
 18 10 31 21  9 20.4360000  0  8G05G12G15G20G21G25G29G31
  23607503.058
  22825468.95
  24979322.766
  22409835.196
  21099476.83
  20704887.01
  21455557.423
  23014054.604
 18 10 31 21  9 21.4360000  0  8G05G12G15G20G25G26G29G31
  23607914.377
  22826096.721
  24979061.955
  22409232.012
  20705154.417
  24092582.849
  21455543.637
  23014138.243
 18 10 31 21  9 22.4360000  0  8G05G12G15G20G25G26G29G31
  23608374.853
  22826647.136
  24978800.237
  22408601.85
  20705404.74
  24091886.132
  21455513.361
  23014214.082
 18 10 31 21  9 23.4360000  0  8G05G12G15G20G25G26G29G31
  23608813.15
  22827217.043
  24978548.116
  22407977.969
  20705676.353
  24091277.555
  21455480.677
  23014275.542
 18 10 31 21  9 24.4360000  0  8G05G12G15G20G25G26G29G31
  23609278.739
  22827805.534
  24978291.179
  22407373.302
  20705936.57
  24090668.979
  21455468.688
  23014335.204
 18 10 31 21  9 25.4360000  0  9G05G12G15G20G21G25G26G29G31
  23609726.023
  22828394.025
  24978056.456
  22406764.412
  21098287.249
  20706202.494
  24089993.534
  21455444.101
  23014415.248
 18 10 31 21  9 26.4360000  0  9G05G12G15G20G21G25G26G29G31
  23610187.111
  22828953.741
  24977793.534
  22406141.753
  21098043.225
  20706467.807
  24089363.075
  21455427.314
  23014474.91
 18 10 31 21  9 27.4360000  0  8G05G12G15G20G25G26G29G31
  23610611.605
  22829573.119
  24977530.611
  22405518.187
  20706731.62
  24088694.836
  21455404.227
  23014502.185
 18 10 31 21  9 28.4360000  0  8G05G12G15G20G25G26G29G31
  23611068.504
  22830123.237
  24977293.48
  22404905.702
  20706996.636
  24088088.057
  21455374.858
  23014609.521
 18 10 31 21  9 29.4360000  0  7G05G12G15G20G25G26G29
  23611510.395
  22830714.729
  24977002.376
  22404311.522
  20707251.758
  24087410.832
  21455360.462
 18 10 31 21  9 30.4360000  0  6G12G15G20G25G26G29
  22831267.238
  24976759.242
  22403678.655
  20707520.387
  24086767.18
  21455345.769
 18 10 31 21  9 31.4360000  0  7G05G12G15G20G25G29G31
  23612396.884
  22831911.5
  24976509.826
  22403063.185
  20707790.796
  21455327.184
  23014789.084
 18 10 31 21  9 32.4360000  0  7G05G12G15G20G25G29G31
  23612821.675
  22832472.699
  24976263.394
  22402449.81
  20708035.116
  21455293.61
  23014862.235
 18 10 31 21  9 33.4360000  0  7G05G12G15G20G25G29G31
  23613268.365
  22833053.407
  24976002.862
  22401817.24
  20708307.043
  21455281.308
  23014926.993
 18 10 31 21  9 34.4360000  0  7G05G12G15G20G25G29G31
  23613726.748
  22833639.805
  24975749.241
  22401188.578
  20708566.946
  21455260.036
  23015033.125
 18 10 31 21  9 35.4360000  0  7G05G12G15G20G25G29G31
  23614187.538
  22834231.594
  24975493.228
  22400602.478
  20708836.465
  21455233.651
  23015095.178
 18 10 31 21  9 36.4360000  0  7G05G12G15G20G25G29G31
  23614619.536
  22834811.988
  24975232.103
  22399992.401
  20709081.396
  21455214.159
  23015144.039
 18 10 31 21  9 37.4360000  0  7G05G12G15G20G25G29G31
  23615081.513
  22835398.682
  24974989.877
  22399367.631
  20709360.513
  21455193.481
  23015211.205
 18 10 31 21  9 38.4360000  0  7G05G12G15G20G25G29G31
  23615502.429
  22835965.29
  24974731.142
  22398765.354
  20709630.014
  21455165.595
  23015284.949
 18 10 31 21  9 39.4360000  0  7G05G12G15G20G25G29G31
  23615973.707
  22836563.972
  24974458.047
  22398134.598
  20709886.34
  21455149.105
  23015357.49
 18 10 31 21  9 40.4360000  0  8G05G12G15G20G21G25G29G31
  23616405.094
  22837141.976
  24974231.996
  22397513.126
  21094643.573
  20710149.559
  21455121.83
  23015428.844
 18 10 31 21  9 41.4360000  0  8G05G12G15G20G21G25G29G31
  23616869.776
  22837724.464
  24973958.29
  22396914.13
  21094390.859
  20710419.671
  21455100.244
  23015493.008
 18 10 31 21  9 42.4360000  0  8G05G12G15G20G21G25G29G31
  23617308.667
  22838311.158
  24973706.466
  22396280.373
  21094147.115
  20710678.388
  21455078.658
  23015565.846
 18 10 31 21  9 43.4360000  0  7G05G12G15G20G25G29G31
  23617748.464
  22838897.555
  24973458.533
  22395657.4
  20710944.312
  21455057.666
  23015636.606
 18 10 31 21  9 44.4360000  0  7G05G12G15G20G25G29G31
  23618199.361
  22839473.151
  24973186.624
  22395055.42
  20711218.315
  21455033.393
  23015707.349
 18 10 31 21  9 45.4360000  0  8G05G12G15G20G21G25G29G31
  23618635.86
  22840047.263
  24972940.192
  22394433.651
  21093426.421
  20711466.544
  21455012.4
  23015785.003
 18 10 31 21  9 46.4360000  0  8G05G12G15G20G21G25G29G31
  23619084.942
  22840623.155
  24972673.675
  22393816.978
  21093178.802
  20711727.966
  21454991.425
  23015873.144
 18 10 31 21  9 47.4360000  0  7G05G12G15G20G25G29G31
  23619538.525
  22841214.351
  24972432.635
  22393179.33
  20711998.671
  21454973.137
  23015920.8
 18 10 31 21  9 48.4360000  0  7G05G12G15G20G25G29G31
  23619992.719
  22841753.685
  24972179.624
  22392592.933
  20712265.503
  21454957.536
  23015994.859
 18 10 31 21  9 49.4360000  0  8G05G12G15G20G21G25G29G31
  23620428.015
  22842381.753
  24971934.989
  22391977.149
  21092465.891
  20712533.817
  21454926.667
  23016058.71
 18 10 31 21  9 50.4360000  0  8G05G12G15G20G21G25G29G31
  23620857.325
  22842959.739
  24971676.272
  22391377.263
  21092260.537
  20712799.13
  21454908.379
  23016131.564
 18 10 31 21  9 51.4360000  0  9G05G12G15G20G21G25G26G29G31
  23621309.408
  22843528.459
  24971413.35
  22390743.803
  21092017.403
  20713060.552
  24073254.028
  21454883.495
  23016206.216
 18 10 31 21  9 52.4360000  0  9G05G12G15G20G21G25G26G29G31
  23621765.696
  22844123.843
  24971129.452
  22390105.858
  21091774.566
  20713324.958
  24072622.365
  21454869.395
  23016235.585
 18 10 31 21  9 53.4360000  0  7G05G12G20G25G26G29G31
  23622198.898
  22844700.939
  22389509.27
  20713580.691
  24071983.513
  21454843.621
  23016334.214
 18 10 31 21  9 54.4360000  0  6G05G12G20G25G29G31
  23622646.182
  22845285.539
  22388886.594
  20713851.693
  21454818.737
  23016407.662
 18 10 31 21  9 55.4360000  0  7G05G12G15G20G25G29G31
  23623088.667
  22845859.337
  24970380.856
  22388281.315
  20714123.305
  21454796.244
  23016479.015
 18 10 31 21  9 56.4360000  0  9G05G12G15G20G21G25G26G29G31
  23623534.171
  22846471.508
  24970141.927
  22387657.749
  21090748.074
  20714384.134
  24070042.647
  21454785.46
  23016550.369
 18 10 31 21  9 57.4360000  0  8G05G12G15G20G21G25G29G31
  23623981.159
  22847024.034
  24969901.795
  22387053.954
  21090509.146
  20714655.135
  21454755.48
  23016604.64
 18 10 31 21  9 58.4360000  0  8G05G12G15G20G21G25G29G31
  23624426.942
  22847611.321
  24969613.988
  22386434
  21090266.012
  20714914.76
  21454735.692
  23016680.478
 18 10 31 21  9 59.4360000  0  8G05G12G15G20G21G25G29G31
  23624887.436
  22848214.209
  24969362.164
  22385812.214
  21090023.175
  20715171.976
  21454712.902
  23016747.941
 18 10 31 21 10  0.4360000  0  7G05G12G15G20G25G29G31
  23625328.717
  22848774.221
  24969133.427
  22385198.246
  20715450.185
  21454679.328
  23016819.591
 18 10 31 21 10  1.4360000  0  8G05G12G15G20G21G25G29G31
  23625752.024
  22849379.796
  24968879.509
  22384574.086
  21089542.02
  20715714.905
  21454670.044
  23016906.232
 18 10 31 21 10  2.4360000  0  8G05G12G15G20G21G25G29G31
  23626217.003
  22849954.798
  24968625.573
  22383973.293
  21089299.479
  20715986.814
  21454643.956
  23016969.785
 18 10 31 21 10  3.4360000  0  7G05G12G20G21G25G29G31
  23626665.194
  22850499.821
  22383357.527
  21089048.248
  20716246.735
  21454616.367
  23017016.255
 18 10 31 21 10  4.4360000  0  7G05G12G20G21G25G29G31
  23627109.494
  22851100.911
  22382749.841
  21088827.904
  20716527.038
  21454601.988
  23017121.183
 18 10 31 21 10  5.4360000  0  8G05G12G20G21G25G26G29G31
  23627540.898
  22851710.692
  22382125.367
  21088579.378
  20716790.868
  24064233.575
  21454581.606
  23017185.33
 18 10 31 21 10  6.4360000  0  8G05G12G15G20G21G25G29G31
  23628002.875
  22852284.49
  24967551.722
  22381514.104
  21088321.848
  20717051.975
  21454553.424
  23017241.398
 18 10 31 21 10  7.4360000  0  8G05G12G15G20G21G25G29G31
  23628463.945
  22852863.697
  24967332.564
  22380887.536
  21088122.2
  20717300.501
  21454537.824
  23017331.336
 18 10 31 21 10  8.4360000  0  9G05G12G15G20G21G25G26G29G31
  23628901.352
  22853459.081
  24967114.925
  22380262.173
  21087836.488
  20717576.913
  24062313.108
  21454516.238
  23017381.401
 18 10 31 21 10  9.4360000  0  8G05G12G15G20G21G25G29G31
  23629361.829
  22854049.667
  24966817.521
  22379661.379
  21087594.855
  20717828.737
  21454494.355
  23017459.648
 18 10 31 21 10 10.4360000  0  9G05G12G15G20G21G25G26G29G31
  23629812.725
  22854613.274
  24966595.38
  22379049.505
  21087352.925
  20718094.364
  24060997.624
  21454475.474
  23017528.594
 18 10 31 21 10 11.4360000  0  8G05G12G15G20G25G26G29G31
  23630239.924
  22855190.073
  24966336.366
  22378443.319
  20718379.466
  24060397.737
  21454452.981
  23017598.15
 18 10 31 21 10 12.4360000  0  9G05G12G15G20G21G25G26G29G31
  23630684.52
  22855789.663
  24966068.348
  22377824.552
  21086848.98
  20718646.873
  24059753.772
  21454429.004
  23017679.084
 18 10 31 21 10 13.4360000  0  9G05G12G15G20G21G25G26G29G31
  23631127.302
  22856375.763
  24965815.931
  22377200.986
  21086606.143
  20718913.983
  24059109.824
  21454397.227
  23017753.143
 18 10 31 21 10 14.4360000  0  9G05G12G15G20G21G25G26G29G31
  23631582.997
  22856951.952
  24965556.01
  22376575.325
  21086363.305
  20719182.909
  24058465.876
  21454377.439
  23017820.885
 18 10 31 21 10 15.4360000  0  8G05G12G15G20G25G26G29G31
  23632030.892
  22857531.753
  24965297.886
  22375993.413
  20719443.423
  24057821.614
  21454363.95
  23017889.551
 18 10 31 21 10 16.4360000  0  8G05G12G15G20G25G26G29G31
  23632485.069
  22858121.448
  24965033.167
  22375350.373
  20719708.736
  24057177.666
  21454332.173
  23017963.296
 18 10 31 21 10 17.4360000  0  9G05G12G15G20G21G25G26G29G31
  23632909.58
  22858699.748
  24964772.949
  22374733.996
  21085638.406
  20719968.36
  24056533.701
  21454312.088
  23018044.544
 18 10 31 21 10 18.4360000  0  7G05G12G15G20G25G29G31
  23633389.845
  22859290.944
  24964543.304
  22374120.621
  20720251.961
  21454278.81
  23018119.179
 18 10 31 21 10 19.4360000  0  8G05G12G15G20G21G25G29G31
  23633829.346
  22859878.528
  24964289.683
  22373505.134
  21085192.029
  20720511.586
  21454274.308
  23018182.139
 18 10 31 21 10 20.4360000  0  8G05G12G15G20G21G25G29G31
  23634289.822
  22860464.332
  24963998.875
  22372893.87
  21084953.084
  20720799.095
  21454256.631
  23018261.887
 18 10 31 21 10 21.4360000  0  8G05G12G15G20G21G25G29G31
  23634715.817
  22861039.334
  24963771.341
  22372272.695
  21084711.747
  20721054.811
  21454238.936
  23018344.932
 18 10 31 21 10 22.4360000  0  8G05G12G15G20G21G25G29G31
  23635026.71
  22861474.036
  24963356.724
  22371506.421
  21084317.233
  20721179.231
  21454062.358
  23018254.697
 18 10 31 21 10 23.4360000  0  7G05G12G15G20G25G29G31
  23635465.007
  22862069.717
  24963092.318
  22370876.555
  20721422.958
  21454033.582
  23018326.348
 18 10 31 21 10 24.4360000  0  7G05G12G15G20G25G29G31
  23635929.393
  22862650.408
  24962851.872
  22370283.283
  20721706.262
  21454001.195
  23018403.687
 18 10 31 21 10 25.4360000  0  8G05G12G15G20G25G26G29G31
  23636352.089
  22863234.414
  24962606.051
  22369667.796
  20721970.686
  24051208.802
  21453981.424
  23018478.933
 18 10 31 21 10 26.4360000  0  8G05G12G15G20G25G26G29G31
  23636807.173
  22863811.214
  24962342.221
  22369042.136
  20722228.198
  24050590.017
  21453957.133
  23018550.287
 18 10 31 21 10 27.4360000  0  7G05G12G15G20G25G29G31
  23637260.757
  22864395.813
  24962079.612
  22368436.561
  20722506.704
  21453927.153
  23018615.044
 18 10 31 21 10 28.4360000  0  8G05G12G15G20G25G26G29G31
  23637720.047
  22864990.29
  24961819.988
  22367805.788
  20722778.613
  24049306.606
  21453906.161
  23018693.588
 18 10 31 21 10 29.4360000  0  8G05G12G15G20G25G26G29G31
  23638167.331
  22865544.91
  24961548.672
  22367207.403
  20723045.427
  24048637.774
  21453896.284
  23018778.134
 18 10 31 21 10 30.4360000  0  7G05G12G15G20G25G29G31
  23638606.238
  22866146.594
  24961313.042
  22366590.136
  20723307.756
  21453879.479
  23018836.296
 18 10 31 21 10 31.4360000  0  7G05G12G15G20G25G29G31
  23639085.299
  22866735.696
  24961053.121
  22365947.672
  20723580.555
  21453848.907
  23018920.231
 18 10 31 21 10 32.4360000  0  8G05G12G15G20G21G25G29G31
  23639507.717
  22867305.585
  24960786.9
  22365375.078
  21081936.587
  20723847.683
  21453830.915
  23018996.384
 18 10 31 21 10 33.4360000  0  8G05G12G15G20G21G25G29G31
  23639967.896
  22867862.613
  24960530.592
  22364726.628
  21081680.26
  20724117.184
  21453822.225
  23019057.233
 18 10 31 21 10 34.4360000  0  8G05G12G15G20G21G25G29G31
  23640408.584
  22868501.169
  24960284.456
  22364148.921
  21081440.425
  20724394.207
  21453793.153
  23019136.684
 18 10 31 21 10 35.4360000  0  8G05G12G15G20G21G25G29G31
  23640860.964
  22869071.669
  24960033.522
  22363506.77
  21081200.885
  20724659.52
  21453774.569
  23019214.023
 18 10 31 21 10 36.4360000  0  7G05G12G15G20G25G29G31
  23641286.086
  22869673.353
  24959798.782
  22362899.38
  20724927.834
  21453742.774
  23019288.972
 18 10 31 21 10 37.4360000  0  7G05G12G15G20G25G29G31
  23641775.931
  22870236.96
  24959527.483
  22362286.005
  20725208.137
  21453731.397
  23019360.326
 18 10 31 21 10 38.4360000  0  7G05G12G15G20G25G29G31
  23642219.324
  22870824.264
  24959294.54
  22361664.533
  20725493.535
  21453700.807
  23019433.477
 18 10 31 21 10 39.4360000  0  7G05G12G15G20G25G29G31
  23642649.838
  22871393.56
  24958995.95
  22361058.958
  20725750.769
  21453693.024
  23019508.722
 18 10 31 21 10 40.4360000  0  7G05G12G15G20G25G29G31
  23643085.727
  22871995.54
  24958754.613
  22360437.486
  20726020.881
  21453674.125
  23019580.076
 18 10 31 21 10 41.4360000  0  7G05G12G15G20G25G29G31
  23643562.1
  22872593.629
  24958491.097
  22359820.516
  20726293.68
  21453648.055
  23019656.822
 18 10 31 21 10 42.4360000  0  5G12G20G25G29G31
  22873157.847
  22359212.533
  20726562.902
  21453618.668
  23019718.579
 18 10 31 21 10 43.4360000  0  7G05G12G15G20G25G29G31
  23644488.166
  22873770.018
  24958016.521
  22358610.85
  20726840.204
  21453598.88
  23019804.329
 18 10 31 21 10 44.4360000  0  7G05G12G15G20G25G29G31
  23644924.962
  22874329.734
  24957741.314
  22357992.379
  20727113.02
  21453565.009
  23019877.166
 18 10 31 21 10 45.4360000  0  9G05G12G15G20G21G25G26G29G31
  23645380.937
  22874939.514
  24957461.604
  22357377.207
  21078802.248
  20727379.538
  24038371.078
  21453559.006
  23019969.199
 18 10 31 21 10 46.4360000  0  9G05G12G15G20G21G25G26G29G31
  23645808.153
  22875481.239
  24957206.482
  22356734.759
  21078564.506
  20727648.742
  24037727.723
  21453534.122
  23020036.958
 18 10 31 21 10 47.4360000  0  9G05G12G15G20G21G25G26G29G31
  23646243.745
  22876125.78
  24956960.05
  22356139.672
  21078327.079
  20727915.556
  24037084.665
  21453511.036
  23020116.112
 18 10 31 21 10 48.4360000  0  8G05G12G15G20G21G25G29G31
  23646724.307
  22876651.921
  24956729.515
  22355524.185
  21078089.337
  20728200.658
  21453496.657
  23020175.164
 18 10 31 21 10 49.4360000  0  7G05G12G15G20G25G29G31
  23647179.705
  22877321.957
  24956422.531
  22354924.003
  20728466.581
  21453461.285
  23020270.791
 18 10 31 21 10 50.4360000  0  7G05G12G15G20G25G29G31
  23647620.986
  22877850.786
  24956180.601
  22354296.842
  20728727.706
  21453458.284
  23020337.049
 18 10 31 21 10 51.4360000  0  7G05G12G15G20G25G29G31
  23648079.072
  22878387.119
  24955934.169
  22353706.257
  20729010.4
  21453433.4
  23020403.011
 18 10 31 21 10 52.4360000  0  6G05G15G20G25G29G31
  23648532.359
  24955678.14
  22353097.07
  20729283.513
  21453407.608
  23020485.149
 18 10 31 21 10 53.4360000  0  6G05G12G15G25G29G31
  23648973.36
  22879578.794
  24955439.211
  20729552.125
  21453385.429
  23020568.491
 18 10 31 21 10 54.4360000  0  7G05G12G15G20G25G29G31
  23649430.539
  22880146.31
  24955182.588
  22351863.723
  20729828.833
  21453383.631
  23020635.343
 18 10 31 21 10 55.4360000  0  6G05G15G20G25G29G31
  23649881.732
  24954925.965
  22351232.968
  20730097.758
  21453356.95
  23020706.994
 18 10 31 21 10 56.4360000  0  5G05G20G25G29G31
  23650308.023
  22350629.487
  20730365.758
  21453333.27
  23020793.634
 18 10 31 21 10 57.4360000  0  6G05G12G20G25G29G31
  23650764.608
  22881954.659
  22350008.905
  20730643.077
  21453307.479
  23020842.198
 18 10 31 21 10 58.4360000  0  6G05G12G20G25G29G31
  23651245.187
  22882541.946
  22349403.33
  20730909.891
  21453285.596
  23020935.435
 18 10 31 21 10 59.4360000  0  7G05G12G20G21G25G29G31
  23651695.472
  22883111.556
  22348788.75
  21075449.678
  20731180.003
  21453257.711
  23021017.887
 18 10 31 21 11  0.4360000  0  7G05G12G20G21G25G29G31
  23652109.479
  22883715.333
  22348166.092
  21075233.225
  20731456.711
  21453237.94
  23021094.633
 18 10 31 21 11  1.4360000  0  7G05G12G20G21G25G29G31
  23652590.948
  22884281.034
  22347574.599
  21074994.576
  20731727.73
  21453219.652
  23021148.589
 18 10 31 21 11  2.4360000  0  8G05G12G15G20G21G25G29G31
  23653053.535
  22884853.943
  24953116.413
  22346962.114
  21074768.84
  20731996.638
  21453186.671
  23021235.823
 18 10 31 21 11  3.4360000  0  7G05G12G15G21G25G29G31
  23653504.414
  22885468.225
  24952860.401
  21074530.801
  20732280.536
  21453180.075
  23021331.171
 18 10 31 21 11  4.4360000  0  7G05G15G20G21G25G29G31
  23653940.617
  24952604.074
  22345685.002
  21074292.763
  20732535.955
  21453161.176
  23021399.82
 18 10 31 21 11  5.4360000  0  5G05G20G25G29G31
  23654387.901
  22345101.013
  20732815.961
  21453142.906
  23021478.957
 18 10 31 21 11  6.4360000  0  5G05G21G25G29G31
  23654846.894
  21073805.309
  20733093.873
  21453117.708
  23021550.31
 18 10 31 21 11  7.4360000  0  6G05G20G21G25G29G31
  23655303.776
  22343888.642
  21073572.069
  20733362.484
  21453094.935
  23021632.449
 18 10 31 21 11  8.4360000  0  6G05G20G21G25G29G31
  23655751.357
  22343271.969
  21073349.02
  20733641.601
  21453074.85
  23021690.907
 18 10 31 21 11  9.4360000  0  6G05G20G21G25G29G31
  23656212.147
  22342659.204
  21073106.183
  20733903.022
  21453060.75
  23021789.553
 18 10 31 21 11 10.4360000  0  6G05G20G21G25G29G31
  23656669.622
  22342028.431
  21072827.992
  20734186.012
  21453025.972
  23021859.703
 18 10 31 21 11 11.4360000  0  7G05G12G20G21G25G29G31
  23657125.317
  22890127.294
  22341403.365
  21072640.315
  20734462.424
  21453010.685
  23021940.044
 18 10 31 21 11 12.4360000  0  8G05G12G20G21G25G26G29G31
  23657581.291
  22890761.347
  22340836.163
  21072385.489
  20734743.041
  24021033.484
  21452990.6
  23022017.68
 18 10 31 21 11 13.4360000  0  8G05G12G20G21G25G26G29G31
  23658024.387
  22891338.147
  22340195.495
  21072124.975
  20735009.558
  24020422.499
  21452957.323
  23022102.226
 18 10 31 21 11 14.4360000  0  8G05G12G20G21G25G26G29G31
  23658466.576
  22891924.247
  22339600.111
  21071888.14
  20735281.171
  24019743.477
  21452943.834
  23022165.78
 18 10 31 21 11 15.4360000  0  8G05G12G20G21G25G26G29G31
  23658933.666
  22892485.464
  22338984.049
  21071691.162
  20735552.783
  24019107.922
  21452912.353
  23022244.934
 18 10 31 21 11 16.4360000  0  7G05G12G20G25G26G29G31
  23659377.058
  22893130.912
  22338364.374
  20735810.296
  24018449.578
  21452885.375
  23022330.073
 18 10 31 21 11 17.4360000  0  7G05G12G20G21G25G29G31
  23659840.536
  22893713.418
  22337758.485
  21071175.823
  20736098.696
  21452894.676
  23022410.711
 18 10 31 21 11 18.4360000  0  7G05G12G20G21G25G29G31
  23660272.83
  22894307.301
  22337137.921
  21070961.482
  20736358.617
  21452861.992
  23022481.175
 18 10 31 21 11 19.4360000  0  7G05G12G20G21G25G29G31
  23660718.02
  22894860.718
  22336513.15
  21070729.743
  20736652.112
  21452834.717
  23022557.921
 18 10 31 21 11 20.4360000  0  7G05G12G20G21G25G29G31
  23661179.997
  22895453.1
  22335918.656
  21070460.224
  20736921.631
  21452822.712
  23022656.253
 18 10 31 21 11 21.4360000  0  8G05G12G20G21G25G26G29G31
  23661624.89
  22896042.202
  22335341.857
  21070254.573
  20737194.133
  24015263.971
  21452793.64
  23022713.804
 18 10 31 21 11 22.4360000  0  8G05G12G15G20G21G25G29G31
  23662096.465
  22896631.583
  24948039.429
  22334716.197
  21070029.116
  20737464.856
  21452761.269
  23022800.741
 18 10 31 21 11 23.4360000  0  8G05G15G20G21G25G26G29G31
  23662552.16
  24947785.214
  22334104.916
  21069777.292
  20737755.646
  24013937.999
  21452762.456
  23022895.181
 18 10 31 21 11 24.4360000  0  8G05G12G20G21G25G26G29G31
  23663001.538
  22897827.464
  22333460.671
  21069552.743
  20738036.857
  24013312.932
  21452742.074
  23022965.035
 18 10 31 21 11 25.4360000  0  7G05G12G21G25G26G29G31
  23663449.433
  22898393.479
  21069304.217
  20738302.17
  24012677.36
  21452727.381
  23023043.578
 18 10 31 21 11 26.4360000  0  7G05G12G20G21G25G29G31
  23663900.922
  22898978.062
  22332251.005
  21069084.17
  20738592.07
  21452712.688
  23023131.126
 18 10 31 21 11 27.4360000  0  8G05G12G15G20G21G25G29G31
  23664365.308
  22899597.143
  24946714.643
  22331633.424
  21068838.052
  20738853.195
  21452680.911
  23023219.249
 18 10 31 21 11 28.4360000  0  8G05G12G15G20G21G25G29G31
  23664792.506
  22900176.036
  24946458.928
  22331035.649
  21068609.297
  20739133.498
  21452665.328
  23023298.107
 18 10 31 21 11 29.4360000  0  7G05G12G20G21G25G29G31
  23665258.986
  22900759.432
  22330398.594
  21068374.871
  20739428.197
  21452639.554
  23023362.551
 18 10 31 21 11 30.4360000  0  8G05G12G15G20G21G25G29G31
  23665716.46
  22901364.117
  24945939.086
  22329804.397
  21068123.64
  20739695.308
  21452624.25
  23023445.893
 18 10 31 21 11 31.4360000  0  7G05G12G15G21G25G29G31
  23666160.76
  22901924.129
  24945720.243
  21067919.176
  20739971.423
  21452600.867
  23023518.451
 18 10 31 21 11 32.4360000  0  7G05G12G15G21G25G29G31
  23666611.046
  22902531.205
  24945463.009
  21067660.162
  20740238.83
  21452590.379
  23023610.78
 18 10 31 21 11 33.4360000  0  9G05G12G15G20G21G25G26G29G31
  23667054.142
  22903119.4
  24945175.517
  22327945.076
  21067409.839
  20740508.645
  24007588.684
  21452550.506
  23023683.635
 18 10 31 21 11 34.4360000  0  9G05G12G15G20G21G25G26G29G31
  23667505.928
  22903701.888
  24944920.988
  22327364.979
  21067173.598
  20740785.947
  24006933.342
  21452533.125
  23023765.476
 18 10 31 21 11 35.4360000  0  9G05G12G15G20G21G25G26G29G31
  23667954.119
  22904284.097
  24944731.513
  22326700.038
  21066965.835
  20741055.762
  24006255.209
  21452499.237
  23023841.925
 18 10 31 21 11 36.4360000  0  8G05G12G15G20G21G25G29G31
  23668426.881
  22904880.982
  24944470.109
  22326089.368
  21066731.409
  20741347.756
  21452483.951
  23023930.363
 18 10 31 21 11 37.4360000  0  8G05G12G15G21G25G26G29G31
  23668899.956
  22905470.066
  24944192.197
  21066496.669
  20741617.868
  24004976.3
  21452480.949
  23024006.813
 18 10 31 21 11 38.4360000  0  8G05G12G15G20G25G26G29G31
  23669320.262
  22906045.382
  24943958.957
  22324844.626
  20741905.971
  24004352.14
  21452454.268
  23024086.857
 18 10 31 21 11 39.4360000  0  8G05G12G15G20G25G26G29G31
  23669793.634
  22906665.947
  24943711.635
  22324286.114
  20742190.183
  24003702.486
  21452435.98
  23024162.102
 18 10 31 21 11 40.4360000  0  7G05G12G15G20G25G29G31
  23670261.317
  22907252.937
  24943449.01
  22323652.061
  20742450.104
  21452415.598
  23024237.051
 18 10 31 21 11 41.4360000  0  7G05G12G15G25G26G29G31
  23670695.112
  22907838.724
  24943231.964
  20742747.787
  24002432.267
  21452397.921
  23024323.691
 18 10 31 21 11 42.4360000  0  7G05G12G15G25G26G29G31
  23671154.699
  22908401.441
  24942932.762
  20743002.316
  24001765.215
  21452370.926
  23024408.237
 18 10 31 21 11 43.4360000  0  8G05G12G15G20G25G26G29G31
  23671611.877
  22909011.518
  24942666.245
  22321822.72
  20743280.822
  24001165.94
  21452358.344
  23024478.981
 18 10 31 21 11 44.4360000  0  8G05G12G15G21G25G26G29G31
  23672087.046
  22909565.842
  24942400.042
  21064854.708
  20743581.21
  24000524.976
  21452335.554
  23024552.429
 18 10 31 21 11 45.4360000  0  8G05G12G15G21G25G26G29G31
  23672524.75
  22910169.322
  24942142.808
  21064619.374
  20743843.539
  23999884.029
  21452314.875
  23024648.37
 18 10 31 21 11 46.4360000  0  7G05G12G15G21G25G29G31
  23672990.933
  22910781.494
  24941891.595
  21064384.023
  20744113.651
  21452294.476
  23024734.103
 18 10 31 21 11 47.4360000  0  7G05G12G15G25G26G29G31
  23673448.704
  22911357.996
  24941619.983
  20744394.861
  23998577.532
  21452275.002
  23024798.564
 18 10 31 21 11 48.4360000  0  7G05G12G15G25G26G29G31
  23673902.305
  22911956.975
  24941379.536
  20744667.66
  23997971.049
  21452245.319
  23024886.408
 18 10 31 21 11 49.4360000  0  7G05G12G15G25G26G29G31
  23674353.777
  22912534.979
  24941111.536
  20744955.467
  23997300.106
  21452229.422
  23024990.726
 18 10 31 21 11 50.4360000  0  7G05G12G15G25G26G29G31
  23674789.98
  22913157.044
  24940855.209
  20745250.759
  23996682.543
  21452216.84
  23025074.975
 18 10 31 21 11 51.4360000  0  8G05G12G15G20G25G26G29G31
  23675277.138
  22913727.858
  24940621.359
  22316936.1
  20745525.373
  23996022.994
  21452181.765
  23025133.137
 18 10 31 21 11 52.4360000  0  8G05G12G15G20G25G26G29G31
  23675717.233
  22914302.86
  24940367.144
  22316354.502
  20745800.284
  23995382.641
  21452176.966
  23025214.682
 18 10 31 21 11 53.4360000  0  8G05G12G15G20G25G26G29G31
  23676169.036
  22914908.138
  24940112.615
  22315749.52
  20746084.478
  23994763.874
  21452151.489
  23025304.009
 18 10 31 21 11 54.4360000  0  7G05G15G20G25G26G29G31
  23676635.201
  24939841.299
  22315119.969
  20746349.198
  23994121.706
  21452123.604
  23025385.851
 18 10 31 21 11 55.4360000  0  8G05G12G15G20G25G26G29G31
  23677101.977
  22916144.783
  24939603.575
  22314509.281
  20746634.596
  23993479.555
  21452106.223
  23025488.092
 18 10 31 21 11 56.4360000  0  7G05G12G15G20G25G29G31
  23677559.766
  22916735.665
  24939314.564
  22313925.589
  20746895.721
  21452087.028
  23025561.836
 18 10 31 21 11 57.4360000  0  7G05G12G15G20G25G29G31
  23678013.646
  22917280.688
  24939063.037
  22313317.902
  20747201.816
  21452072.946
  23025625.983
 18 10 31 21 11 58.4360000  0  7G05G12G15G20G25G29G31
  23678474.733
  22917827.211
  24938810.323
  22312700.636
  20747483.009
  21452049.562
  23025714.735
 18 10 31 21 11 59.4360000  0  7G05G12G15G20G25G29G31
  23678906.138
  22918448.386
  24938551.292
  22312088.465
  20747739.946
  21452039.354
  23025801.061
 18 10 31 21 12  0.4360000  0  7G05G12G15G20G25G29G31
  23679373.804
  22919038.082
  24938303.97
  22311487.078
  20748042.724
  21452015.081
  23025886.812
 18 10 31 21 12  1.4360000  0  8G05G12G15G20G25G26G29G31
  23679836.095
  22919622.978
  24938051.553
  22310867.106
  20748318.246
  23989629.025
  21451983.304
  23025971.044
 18 10 31 21 12  2.4360000  0  7G05G12G15G20G25G29G31
  23680295.664
  22920224.365
  24937794.616
  22310239.038
  20748594.64
  21451976.708
  23026029.502
 18 10 31 21 12  3.4360000  0  8G05G12G15G20G21G25G29G31
  23680741.464
  22920822.75
  24937529.599
  22309649.343
  21060437.255
  20748867.16
  21451953.028
  23026124.85
 18 10 31 21 12  4.4360000  0  8G05G12G15G20G21G25G29G31
  23681216.041
  22921387.561
  24937265.787
  22309012.585
  21060205.83
  20749157.06
  21451935.333
  23026225.276
 18 10 31 21 12  5.4360000  0  8G05G12G15G20G21G25G29G31
  23681666.919
  22922001.53
  24936980.388
  22308439.991
  21059942.908
